{"clusters":[{"id":0,"lon":-115.13722,"state":"Nevada","group":0,"lat":36.17497,"city":"Lasvegas"},{"id":1,"lon":-111.89105,"state":"Utah","group":1,"lat":40.76078,"city":"Saltlakecity"},{"id":2,"lon":-95.36327,"state":"Texas","group":2,"lat":29.76328,"city":"Houston"},{"id":3,"lon":-122.41942,"state":"California","group":3,"lat":37.77493,"city":"Sanfrancisco"},{"id":4,"lon":-87.65005,"state":"Illinois","group":4,"lat":41.85003,"city":"Chicago"},{"id":5,"lon":-81.37924,"state":"Florida","group":5,"lat":28.53834,"city":"Orlando"},{"id":6,"lon":-118.43897,"state":"California","group":6,"lat":34.28195,"city":"San Fernando"},{"id":7,"lon":-81.51901,"state":"Ohio","group":7,"lat":41.08144,"city":"Akron"},{"id":8,"lon":-94.57857,"state":"Missouri","group":8,"lat":39.09973,"city":"Kansascity"},{"id":9,"lon":-81.69541,"state":"Ohio","group":9,"lat":41.4995,"city":"Cleveland"},{"id":10,"lon":-111.65853,"state":"Utah","group":10,"lat":40.23384,"city":"Provo"},{"id":11,"lon":-76.49717,"state":"Maryland","group":11,"lat":38.48623,"city":"Eastern Shore"},{"id":12,"lon":-72.58981,"state":"Massachusetts","group":12,"lat":42.10148,"city":"Springfield"},{"id":13,"lon":-92.10658,"state":"Minnesota","group":13,"lat":46.78327,"city":"Duluth"},{"id":14,"lon":-88.88531,"state":"Mississippi","group":14,"lat":30.39603,"city":"Biloxi"},{"id":15,"lon":-92.33407,"state":"Missouri","group":15,"lat":38.95171,"city":"Columbia"},{"id":16,"lon":-106.65114,"state":"New Mexico","group":16,"lat":35.08449,"city":"Albuquerque"},{"id":17,"lon":-77.61556,"state":"New York","group":17,"lat":43.15478,"city":"Rochester"},{"id":18,"lon":-78.87836,"state":"North Carolina","group":18,"lat":35.05266,"city":"Fayetteville"},{"id":19,"lon":-115.13722,"state":"Nevada","group":19,"lat":36.17497,"city":"Las Vegas"},{"id":20,"lon":-74.22487,"state":"New Jersey","group":20,"lat":40.13845,"city":"Southjersey"},{"id":21,"lon":-84.38798,"state":"Georgia","group":21,"lat":33.749,"city":"Atlanta"},{"id":22,"lon":-83.6324,"state":"Georgia","group":22,"lat":32.84069,"city":"Macon"},{"id":23,"lon":-80.20838,"state":"Florida","group":23,"lat":26.16647,"city":"Ftlauderdale"},{"id":24,"lon":-74.71711,"state":"New Jersey","group":24,"lat":41.13621,"city":"Northjersey"},{"id":25,"lon":-80.19366,"state":"Florida","group":25,"lat":25.77427,"city":"Miami"},{"id":26,"lon":-75.51464,"state":"New Jersey","group":26,"lat":39.65984,"city":"Centraljersey"},{"id":27,"lon":-87.90647,"state":"Wisconsin","group":27,"lat":43.0389,"city":"Milwaukee"},{"id":28,"lon":-96.80667,"state":"Texas","group":28,"lat":32.78306,"city":"Dallas"},{"id":29,"lon":-105.27055,"state":"Colorado","group":29,"lat":40.01499,"city":"Boulder"},{"id":30,"lon":-118.18923,"state":"California","group":30,"lat":33.76696,"city":"Longbeach"},{"id":31,"lon":-118.24368,"state":"California","group":31,"lat":34.05223,"city":"Losangeles"},{"id":32,"lon":-117.85311,"state":"California","group":32,"lat":33.78779,"city":"Orangecounty"},{"id":33,"lon":-117.15726,"state":"California","group":33,"lat":32.71533,"city":"Sandiego"},{"id":34,"lon":-117.85311,"state":"California","group":34,"lat":33.78779,"city":"Orange County"},{"id":35,"lon":-75.16379,"state":"Pennsylvania","group":35,"lat":39.95233,"city":"Philadelphia"},{"id":36,"lon":-80.05337,"state":"Florida","group":36,"lat":26.71534,"city":"Westpalmbeach"},{"id":37,"lon":-78.87837,"state":"New York","group":37,"lat":42.88645,"city":"Buffalo"},{"id":38,"lon":-81.84059,"state":"Florida","group":38,"lat":26.62168,"city":"Fortmyers"},{"id":39,"lon":-82.3452,"state":"Florida","group":39,"lat":27.9825,"city":"Space Coast"},{"id":40,"lon":-112.07404,"state":"Arizona","group":40,"lat":33.44838,"city":"Phoenix"},{"id":41,"lon":-97.51643,"state":"Oklahoma","group":41,"lat":35.46756,"city":"Oklahoma City"},{"id":42,"lon":-84.45689,"state":"Ohio","group":42,"lat":39.162,"city":"Cincinnati"},{"id":43,"lon":-85.30968,"state":"Tennessee","group":43,"lat":35.04563,"city":"Chattanooga"},{"id":44,"lon":-86.4436,"state":"Kentucky","group":44,"lat":36.99032,"city":"Bowling Green"},{"id":45,"lon":-82.45843,"state":"Florida","group":45,"lat":27.94752,"city":"Tampa"},{"id":46,"lon":-86.80249,"state":"Alabama","group":46,"lat":33.52066,"city":"Birmingham"},{"id":47,"lon":-117.15726,"state":"California","group":47,"lat":32.71533,"city":"San Diego"},{"id":48,"lon":-94.57857,"state":"Missouri","group":48,"lat":39.09973,"city":"Kansas City"},{"id":49,"lon":-95.30106,"state":"Texas","group":49,"lat":32.35126,"city":"Tyler"},{"id":50,"lon":-90.04898,"state":"Tennessee","group":50,"lat":35.14953,"city":"Memphis"},{"id":51,"lon":-86.78444,"state":"Tennessee","group":51,"lat":36.16589,"city":"Nashville"},{"id":52,"lon":-76.83942,"state":"District Of Columbia","group":52,"lat":39.24038,"city":"Southern Maryland"},{"id":53,"lon":-118.24368,"state":"California","group":53,"lat":34.05223,"city":"Los Angeles"},{"id":54,"lon":-93.2044,"state":"Louisiana","group":54,"lat":30.21309,"city":"Lake Charles"},{"id":55,"lon":-83.68746,"state":"Michigan","group":55,"lat":43.01253,"city":"Flint"},{"id":56,"lon":-110.92648,"state":"Arizona","group":56,"lat":32.22174,"city":"Tucson"},{"id":57,"lon":-77.00108,"state":"Pennsylvania","group":57,"lat":41.24119,"city":"Williamsport"},{"id":58,"lon":-79.9559,"state":"West Virginia","group":58,"lat":39.62953,"city":"Morgantown"},{"id":59,"lon":-95.93779,"state":"Nebraska","group":59,"lat":41.25861,"city":"Omaha"},{"id":60,"lon":-82.99879,"state":"Ohio","group":60,"lat":39.96118,"city":"Columbus"},{"id":61,"lon":-83.92074,"state":"Tennessee","group":61,"lat":35.96064,"city":"Knoxville"},{"id":62,"lon":-84.47772,"state":"Kentucky","group":62,"lat":37.98869,"city":"Lexington"},{"id":63,"lon":-92.01984,"state":"Louisiana","group":63,"lat":30.22409,"city":"Lafayette"},{"id":64,"lon":-83.04575,"state":"Michigan","group":64,"lat":42.33143,"city":"Detroit"},{"id":65,"lon":-95.98559,"state":"Minnesota","group":65,"lat":44.55885,"city":"Stpaul"},{"id":66,"lon":-111.97383,"state":"Utah","group":66,"lat":41.223,"city":"Ogden"},{"id":67,"lon":-117.39616,"state":"California","group":67,"lat":33.95335,"city":"Riverside"},{"id":68,"lon":-79.99589,"state":"Pennsylvania","group":68,"lat":40.44062,"city":"Pittsburgh"},{"id":69,"lon":-78.1625,"state":"District Of Columbia","group":69,"lat":37.75292,"city":"Northern Virginia"},{"id":70,"lon":-157.85833,"state":"Hawaii","group":70,"lat":21.30694,"city":"Honolulu"},{"id":71,"lon":-120.90215,"state":"California","group":71,"lat":37.63826,"city":"Inlandempire"},{"id":72,"lon":-121.89496,"state":"California","group":72,"lat":37.33939,"city":"San Jose"},{"id":73,"lon":-86.15804,"state":"Indiana","group":73,"lat":39.76838,"city":"Indianapolis"},{"id":74,"lon":-86.5861,"state":"Alabama","group":74,"lat":34.73037,"city":"Huntsville"},{"id":75,"lon":-80.20838,"state":"Florida","group":75,"lat":26.16647,"city":"Ft Lauderdale"},{"id":76,"lon":-81.09983,"state":"Georgia","group":76,"lat":32.08354,"city":"Savannah"},{"id":77,"lon":-97.33754,"state":"Kansas","group":77,"lat":37.69224,"city":"Wichita"},{"id":78,"lon":-84.55553,"state":"Michigan","group":78,"lat":42.73253,"city":"Lansing"},{"id":79,"lon":-111.89105,"state":"Utah","group":79,"lat":40.76078,"city":"Salt Lake City"},{"id":80,"lon":-156.42664,"state":"Hawaii","group":80,"lat":20.69871,"city":"Maui"},{"id":81,"lon":-86.29997,"state":"Alabama","group":81,"lat":32.36681,"city":"Montgomery"},{"id":82,"lon":-90.18481,"state":"Mississippi","group":82,"lat":32.29876,"city":"Jackson"},{"id":83,"lon":-122.67621,"state":"Oregon","group":83,"lat":45.52345,"city":"Portland"},{"id":84,"lon":-76.28522,"state":"Virginia","group":84,"lat":36.84681,"city":"Norfolk"},{"id":85,"lon":-122.44429,"state":"Washington","group":85,"lat":47.25288,"city":"Tacoma"},{"id":86,"lon":-121.65386,"state":"California","group":86,"lat":39.41517,"city":"East Bay"},{"id":87,"lon":-78.71418,"state":"North Carolina","group":87,"lat":35.63571,"city":"Outer Banks"},{"id":88,"lon":-88.41538,"state":"Wisconsin","group":88,"lat":44.26193,"city":"Appleton"},{"id":89,"lon":-122.41942,"state":"California","group":89,"lat":37.77493,"city":"San Francisco"},{"id":90,"lon":-85.17971,"state":"Michigan","group":90,"lat":42.32115,"city":"Battle Creek"},{"id":91,"lon":-76.49218,"state":"Maryland","group":91,"lat":38.97845,"city":"Annapolis"},{"id":92,"lon":-122.2754,"state":"District Of Columbia","group":92,"lat":47.56399,"city":"Washington Dc"},{"id":93,"lon":-80.84313,"state":"North Carolina","group":93,"lat":35.22709,"city":"Charlotte"},{"id":94,"lon":-77.41054,"state":"Maryland","group":94,"lat":39.41427,"city":"Frederick"},{"id":95,"lon":-75.97799,"state":"Virginia","group":95,"lat":36.85293,"city":"Virginia Beach"},{"id":96,"lon":-72.92816,"state":"Connecticut","group":96,"lat":41.30815,"city":"New Haven"},{"id":97,"lon":-120.90215,"state":"California","group":97,"lat":37.63826,"city":"Inland Empire"},{"id":98,"lon":-119.29206,"state":"California","group":98,"lat":36.33023,"city":"Visalia"},{"id":99,"lon":-97.49748,"state":"Texas","group":99,"lat":25.90175,"city":"Brownsville"},{"id":100,"lon":-117.28977,"state":"California","group":100,"lat":34.10834,"city":"San Bernardino"},{"id":101,"lon":-76.61219,"state":"Maryland","group":101,"lat":39.29038,"city":"Baltimore"},{"id":102,"lon":-88.0728,"state":"Kentucky","group":102,"lat":37.47255,"city":"West Kentucky"},{"id":103,"lon":-90.19789,"state":"Missouri","group":103,"lat":38.62727,"city":"St Louis"},{"id":104,"lon":-157.73706,"state":"Hawaii","group":104,"lat":21.2843,"city":"Bigisland"},{"id":105,"lon":-92.6388,"state":"Missouri","group":105,"lat":38.19864,"city":"Lake Of The Ozarks"},{"id":106,"lon":-121.89468,"state":"California","group":106,"lat":36.60024,"city":"Monterey"},{"id":107,"lon":-88.04305,"state":"Alabama","group":107,"lat":30.69436,"city":"Mobile"},{"id":108,"lon":-78.86892,"state":"Virginia","group":108,"lat":38.44957,"city":"Harrisonburg"}],"dates":["2012-07-01","2012-07-02","2012-07-03","2012-07-04","2012-07-05","2012-07-06","2012-07-07","2012-07-08","2012-07-09","2012-07-10","2012-07-11","2012-07-12","2012-07-13","2012-07-14","2012-07-15","2012-07-16","2012-07-17","2012-07-18","2012-07-19","2012-07-20","2012-07-21","2012-07-22","2012-07-23","2012-07-24","2012-07-25","2012-07-26","2012-07-27","2012-07-28","2012-07-29","2012-07-30","2012-07-31"],"nodes":[{"id":0,"appear":[0,0,0,0,0,0,0,0,0,0,0,0,0,0,0,0,0,0,0,0,0,0,0,-1,-1,0,0,0,0,0,0],"color":0,"label":"+1-7025865006"},{"id":1,"appear":[1,1,1,-1,1,1,1,1,1,1,1,1,1,1,-1,66,1,1,66,1,1,-1,66,1,-1,1,1,1,-1,1,1],"color":1,"label":"+1-8018886900"},{"id":2,"appear":[2,2,2,2,2,2,2,2,2,2,2,-1,2,2,2,2,2,2,2,2,2,2,2,2,2,2,2,2,2,2,2],"color":2,"label":"+1-2814960678"},{"id":3,"appear":[3,3,3,3,3,3,3,3,3,3,3,3,3,3,3,3,3,-1,3,3,3,3,3,3,3,3,3,3,3,3,3],"color":3,"label":"+1-4157882299"},{"id":4,"appear":[4,4,-1,4,4,4,-1,-1,-1,4,-1,-1,4,-1,4,4,4,4,-1,-1,-1,-1,4,4,4,4,-1,-1,-1,-1,4],"color":4,"label":"+1-6305292177"},{"id":5,"appear":[5,5,5,-1,5,5,5,5,5,5,-1,5,5,5,5,5,5,5,5,5,5,5,5,5,5,5,5,5,5,5,5],"color":5,"label":"+1-3212506032"},{"id":6,"appear":[6,6,-1,-1,-1,47,53,53,-1,72,-1,-1,72,-1,89,72,89,89,89,89,-1,72,72,-1,6,-1,34,53,-1,-1,-1],"color":6,"label":"+1-4153057124"},{"id":7,"appear":[7,9,9,7,-1,-1,7,-1,9,-1,9,9,-1,9,-1,-1,-1,-1,-1,-1,9,-1,7,9,-1,9,9,9,-1,-1,9],"color":7,"label":"+1-2166881217"},{"id":8,"appear":[2,-1,2,2,-1,-1,2,2,-1,-1,2,-1,2,2,2,-1,-1,2,2,-1,2,-1,2,-1,-1,2,-1,-1,2,2,2],"color":2,"label":"+1-2818593888"},{"id":9,"appear":[8,8,8,-1,8,-1,8,-1,-1,8,-1,8,8,8,8,8,8,8,8,8,-1,-1,8,8,-1,-1,-1,-1,-1,8,8],"color":8,"label":"+1-9137421612"},{"id":10,"appear":[10,-1,-1,39,-1,49,54,-1,-1,-1,-1,-1,87,90,10,-1,-1,-1,-1,99,-1,102,-1,-1,105,-1,-1,107,-1,-1,-1],"color":10,"label":"+1-4146870501"},{"id":11,"appear":[19,19,19,-1,-1,-1,-1,19,19,19,-1,-1,-1,2,-1,2,-1,-1,-1,2,2,-1,2,2,-1,2,2,-1,-1,-1,-1],"color":19,"label":"+1-8325703459"},{"id":12,"appear":[20,-1,20,20,20,20,20,20,20,20,20,20,20,20,-1,-1,20,-1,20,20,20,20,20,20,20,20,20,20,20,20,20],"color":20,"label":"+1-8567830832"},{"id":13,"appear":[21,21,21,21,-1,21,21,21,21,21,21,21,21,21,21,-1,21,21,21,21,-1,21,21,21,21,21,21,21,21,21,21],"color":21,"label":"+1-7706503100"},{"id":14,"appear":[21,22,22,-1,22,22,22,22,21,22,22,-1,21,21,-1,-1,-1,22,-1,-1,-1,-1,-1,-1,-1,-1,-1,-1,-1,-1,-1],"color":21,"label":"+1-4787437779"},{"id":15,"appear":[5,5,5,5,5,5,5,5,5,5,5,5,5,5,5,5,5,5,5,5,-1,5,5,5,5,5,5,5,-1,5,91],"color":5,"label":"+1-4077220908"},{"id":16,"appear":[23,-1,-1,-1,-1,25,25,-1,25,25,25,23,25,23,-1,-1,23,25,25,25,-1,-1,-1,-1,-1,-1,-1,23,-1,-1,-1],"color":23,"label":"+1-7863997951"},{"id":17,"appear":[24,-1,24,-1,24,-1,-1,24,24,24,-1,24,20,-1,20,24,-1,24,24,24,24,24,24,24,24,24,24,24,24,24,24],"color":24,"label":"+1-9732538420"},{"id":18,"appear":[26,-1,26,-1,-1,24,-1,-1,24,26,-1,26,-1,-1,26,26,-1,26,-1,26,-1,24,-1,-1,26,-1,-1,-1,-1,24,-1],"color":26,"label":"+1-9084034036"},{"id":19,"appear":[23,23,23,23,-1,23,23,23,23,23,23,-1,23,-1,-1,23,-1,-1,23,-1,-1,23,-1,23,-1,23,-1,-1,23,23,23],"color":23,"label":"+1-9544272075"},{"id":20,"appear":[27,27,27,27,27,27,27,27,-1,-1,73,73,73,73,73,73,73,-1,-1,73,73,73,73,73,73,73,73,73,73,73,-1],"color":27,"label":"+1-4142336741"},{"id":21,"appear":[5,5,5,5,5,5,5,5,5,-1,-1,-1,-1,-1,-1,-1,-1,-1,-1,-1,-1,-1,-1,-1,-1,-1,-1,-1,-1,-1,-1],"color":5,"label":"+1-4077907246"},{"id":22,"appear":[24,-1,24,-1,24,24,24,24,24,24,24,24,24,24,24,24,24,24,24,24,24,24,24,24,24,24,24,24,24,24,24],"color":24,"label":"+1-2018806868"},{"id":23,"appear":[28,28,-1,-1,28,28,-1,28,-1,-1,28,28,-1,28,28,28,28,28,28,28,28,-1,28,28,-1,28,28,-1,-1,-1,-1],"color":28,"label":"+1-2145567373"},{"id":24,"appear":[29,29,29,29,29,29,29,29,29,29,-1,-1,29,-1,-1,-1,29,29,29,-1,29,29,-1,29,29,29,-1,-1,-1,29,29],"color":29,"label":"+1-7202310392"},{"id":25,"appear":[21,-1,-1,-1,46,46,-1,50,50,50,50,50,50,50,50,50,50,50,-1,50,-1,-1,103,103,-1,-1,-1,-1,-1,-1,-1],"color":21,"label":"+1-9012017340"},{"id":26,"appear":[30,30,-1,-1,-1,-1,31,31,31,-1,30,30,-1,30,30,30,30,30,30,-1,-1,30,-1,-1,-1,30,30,-1,30,-1,-1],"color":30,"label":"+1-3106181937"},{"id":27,"appear":[31,-1,-1,31,31,-1,-1,31,-1,31,31,31,-1,-1,31,-1,31,31,31,31,-1,-1,31,-1,31,31,-1,-1,31,31,31],"color":31,"label":"+1-6263449893"},{"id":28,"appear":[30,-1,30,-1,-1,30,-1,-1,30,30,30,30,-1,30,-1,30,30,30,30,30,30,-1,30,-1,30,-1,-1,-1,30,-1,-1],"color":30,"label":"+1-5629918536"},{"id":29,"appear":[23,23,-1,23,23,23,23,23,23,23,23,23,-1,23,23,23,23,23,23,23,23,-1,23,-1,23,23,23,23,23,-1,-1],"color":23,"label":"+1-9545347695"},{"id":30,"appear":[32,32,32,32,32,32,32,32,32,32,32,32,-1,-1,32,-1,32,-1,-1,-1,-1,-1,-1,-1,-1,-1,30,-1,-1,32,-1],"color":32,"label":"+1-7142523672"},{"id":31,"appear":[32,32,32,-1,-1,-1,-1,32,-1,32,32,-1,32,32,-1,32,32,-1,-1,32,-1,32,-1,32,32,32,32,-1,32,-1,-1],"color":32,"label":"+1-9492953079"},{"id":32,"appear":[33,33,-1,-1,33,33,33,33,33,-1,33,-1,33,-1,-1,33,-1,-1,33,33,33,-1,33,-1,-1,33,33,33,-1,33,-1],"color":33,"label":"+1-7607358850"},{"id":33,"appear":[33,33,33,33,33,33,-1,33,33,33,-1,-1,33,33,33,33,-1,33,33,33,33,33,-1,33,-1,33,33,-1,-1,-1,-1],"color":33,"label":"+1-4049021872"},{"id":34,"appear":[-1,34,-1,34,34,-1,34,-1,-1,-1,86,86,86,86,-1,-1,86,-1,97,100,100,-1,67,-1,97,53,-1,100,-1,-1,100],"color":34,"label":"+1-8188108299"},{"id":35,"appear":[-1,35,-1,35,35,35,-1,35,35,35,35,35,35,35,35,35,35,35,35,35,35,-1,35,-1,35,-1,35,35,35,35,-1],"color":35,"label":"+1-6108095284"},{"id":36,"appear":[-1,30,-1,30,30,30,30,30,30,30,30,30,-1,-1,30,32,32,30,-1,30,30,32,32,30,30,-1,32,30,30,30,30],"color":30,"label":"+1-7148483740"},{"id":37,"appear":[-1,36,23,-1,-1,-1,-1,-1,-1,36,-1,-1,36,23,23,-1,-1,23,-1,23,-1,-1,-1,36,36,36,-1,-1,23,23,23],"color":36,"label":"+1-5616741227"},{"id":38,"appear":[-1,-1,31,-1,-1,-1,-1,-1,-1,31,31,-1,-1,31,31,31,31,-1,-1,31,31,-1,-1,-1,31,31,31,31,31,31,-1],"color":31,"label":"+1-6265393198"},{"id":39,"appear":[-1,-1,22,-1,22,-1,22,22,-1,22,22,22,22,-1,-1,-1,-1,22,22,22,22,22,22,22,22,22,22,22,22,22,22],"color":22,"label":"+1-2296453424"},{"id":40,"appear":[-1,-1,37,-1,-1,37,37,-1,37,-1,37,37,37,-1,37,-1,-1,-1,37,-1,-1,37,37,37,-1,37,37,-1,37,37,37],"color":37,"label":"+1-7165480397"},{"id":41,"appear":[-1,-1,38,-1,-1,-1,38,38,38,-1,38,38,38,-1,38,38,38,-1,-1,38,38,38,38,38,38,38,38,38,38,38,38],"color":38,"label":"+1-2392887381"},{"id":42,"appear":[-1,-1,-1,5,-1,-1,-1,5,-1,-1,-1,5,-1,5,5,5,5,5,-1,5,5,-1,5,5,5,-1,-1,-1,-1,-1,5],"color":5,"label":"+1-4073003456"},{"id":43,"appear":[-1,-1,-1,40,45,48,56,61,-1,68,74,-1,-1,-1,-1,-1,-1,-1,-1,-1,-1,-1,-1,-1,-1,-1,-1,-1,-1,-1,-1],"color":40,"label":"+1-7028583171"},{"id":44,"appear":[-1,-1,-1,42,42,-1,-1,-1,42,42,42,-1,42,-1,42,-1,-1,42,42,42,42,-1,42,42,42,42,-1,42,-1,42,42],"color":42,"label":"+1-5133407272"},{"id":45,"appear":[-1,-1,-1,-1,-1,33,-1,33,33,-1,-1,33,33,-1,-1,33,-1,33,33,-1,33,33,33,33,33,33,33,-1,-1,33,-1],"color":33,"label":"+1-6193131103"},{"id":46,"appear":[-1,-1,-1,-1,-1,-1,52,52,-1,69,-1,-1,-1,52,69,92,92,92,-1,-1,101,-1,101,101,-1,-1,-1,108,-1,-1,-1],"color":52,"label":"+1-2027021672"},{"id":47,"appear":[-1,-1,-1,-1,-1,-1,-1,65,65,65,65,65,-1,-1,65,65,65,-1,65,65,65,65,65,65,65,65,-1,65,65,65,65],"color":65,"label":"+1-6127029355"},{"id":48,"appear":[-1,-1,-1,-1,-1,-1,-1,-1,-1,70,80,-1,80,80,-1,80,80,-1,80,80,80,80,-1,-1,104,-1,70,70,-1,-1,-1],"color":70,"label":"+1-4086673027"},{"id":49,"appear":[-1,-1,-1,-1,-1,-1,-1,-1,-1,-1,-1,-1,-1,-1,-1,-1,-1,-1,72,72,72,72,72,72,72,106,-1,72,-1,72,72],"color":72,"label":"+1-2092697121"}]}
