{"category":"ethnicity","clusters":[{"id":0,"lon":-122.20208,"state":"Washington","group":0,"lat":47.97898,"city":"Everett"},{"id":1,"lon":-122.0308,"state":"California","group":1,"lat":36.97412,"city":"Santa Cruz"},{"id":2,"lon":-121.89496,"state":"California","group":2,"lat":37.33939,"city":"San Jose"},{"id":3,"lon":-122.33207,"state":"Washington","group":3,"lat":47.60621,"city":"Seattle"},{"id":4,"lon":-122.41942,"state":"California","group":4,"lat":37.77493,"city":"San Francisco"},{"id":5,"lon":-81.69541,"state":"Ohio","group":5,"lat":41.4995,"city":"Cleveland"},{"id":6,"lon":-83.04575,"state":"Michigan","group":6,"lat":42.33143,"city":"Detroit"},{"id":7,"lon":-93.68161,"state":"Ontario","group":7,"lat":42.03582,"city":"Ottawa"},{"id":8,"lon":-90.07507,"state":"Louisiana","group":8,"lat":29.95465,"city":"New Orleans"},{"id":9,"lon":-77.88528,"state":"New York","group":9,"lat":42.87117,"city":"New York"},{"id":10,"lon":-121.65386,"state":"California","group":10,"lat":39.41517,"city":"East Bay"},{"id":11,"lon":-75.97799,"state":"Virginia","group":11,"lat":36.85293,"city":"Virginia Beach"},{"id":12,"lon":-122.9007,"state":"Washington","group":12,"lat":47.03787,"city":"Olympia"},{"id":13,"lon":-87.56917,"state":"Alabama","group":13,"lat":33.20984,"city":"Tuscaloosa"},{"id":14,"lon":-86.29997,"state":"Alabama","group":14,"lat":32.36681,"city":"Montgomery"},{"id":15,"lon":-104.9847,"state":"Colorado","group":15,"lat":39.73915,"city":"Denver"},{"id":16,"lon":-117.28977,"state":"California","group":16,"lat":34.10834,"city":"San Bernardino"},{"id":17,"lon":-73.98931,"state":"New York","group":17,"lat":41.1476,"city":"New York City"},{"id":18,"lon":-74.60432,"state":"New Jersey","group":18,"lat":39.82623,"city":"South Jersey"},{"id":19,"lon":-118.18923,"state":"California","group":19,"lat":33.76696,"city":"Longbeach"},{"id":20,"lon":-75.97799,"state":"Virginia","group":20,"lat":36.85293,"city":"Virginiabeach"},{"id":21,"lon":-76.28522,"state":"Virginia","group":21,"lat":36.84681,"city":"Norfolk"},{"id":22,"lon":-76.34522,"state":"Virginia","group":22,"lat":37.02987,"city":"Hampton"},{"id":23,"lon":-97.39638,"state":"Texas","group":23,"lat":27.80058,"city":"Corpus Christi"},{"id":24,"lon":-84.45689,"state":"Ohio","group":24,"lat":39.162,"city":"Cincinnati"},{"id":25,"lon":-79.79198,"state":"North Carolina","group":25,"lat":36.07264,"city":"Greensboro"},{"id":26,"lon":-75.51464,"state":"New Jersey","group":26,"lat":39.65984,"city":"Central Jersey"},{"id":27,"lon":-81.69704,"state":"North Carolina","group":27,"lat":35.69874,"city":"Salem"},{"id":28,"lon":-118.18923,"state":"California","group":28,"lat":33.76696,"city":"Long Beach"},{"id":29,"lon":-117.85311,"state":"California","group":29,"lat":33.78779,"city":"Orange County"},{"id":30,"lon":-74.71711,"state":"New Jersey","group":30,"lat":41.13621,"city":"North Jersey"},{"id":31,"lon":-88.04305,"state":"Alabama","group":31,"lat":30.69436,"city":"Mobile"},{"id":32,"lon":-91.15455,"state":"Louisiana","group":32,"lat":30.45075,"city":"Baton Rouge"},{"id":33,"lon":-86.80249,"state":"Alabama","group":33,"lat":33.52066,"city":"Birmingham"},{"id":34,"lon":-97.13307,"state":"Texas","group":34,"lat":33.21484,"city":"Denton"},{"id":35,"lon":-73.94875,"state":"New York","group":35,"lat":40.74482,"city":"Long Island"},{"id":36,"lon":-80.08506,"state":"Pennsylvania","group":36,"lat":42.12922,"city":"Erie"},{"id":37,"lon":-96.33441,"state":"Texas","group":37,"lat":30.62798,"city":"College Station"},{"id":38,"lon":-118.24368,"state":"California","group":38,"lat":34.05223,"city":"Los Angeles"},{"id":39,"lon":-83.74088,"state":"Michigan","group":39,"lat":42.27756,"city":"Ann Arbor"},{"id":40,"lon":-80.84313,"state":"North Carolina","group":40,"lat":35.22709,"city":"Charlotte"},{"id":41,"lon":-94.57857,"state":"Missouri","group":41,"lat":39.09973,"city":"Kansas City"},{"id":42,"lon":-76.428,"state":"Virginia","group":42,"lat":36.97876,"city":"Newport News"},{"id":43,"lon":-120.48297,"state":"California","group":43,"lat":37.30216,"city":"Merced"},{"id":44,"lon":-80.20838,"state":"Florida","group":44,"lat":26.16647,"city":"Ft Lauderdale"},{"id":45,"lon":-112.07404,"state":"Arizona","group":45,"lat":33.44838,"city":"Phoenix"},{"id":46,"lon":-92.01984,"state":"Louisiana","group":46,"lat":30.22409,"city":"Lafayette"},{"id":47,"lon":-116.54529,"state":"California","group":47,"lat":33.8303,"city":"Palms Prings"},{"id":48,"lon":-122.44429,"state":"Washington","group":48,"lat":47.25288,"city":"Tacoma"},{"id":49,"lon":-116.54529,"state":"California","group":49,"lat":33.8303,"city":"Palm Springs"},{"id":50,"lon":-121.0769,"state":"California","group":50,"lat":39.58656,"city":"North Bay"},{"id":51,"lon":-118.10583,"state":"California","group":51,"lat":34.09611,"city":"San Gabriel Valley"},{"id":52,"lon":-93.2044,"state":"Louisiana","group":52,"lat":30.21309,"city":"Lake Charles"},{"id":53,"lon":-96.80667,"state":"Texas","group":53,"lat":32.78306,"city":"Dallas"},{"id":54,"lon":-90.18481,"state":"Mississippi","group":54,"lat":32.29876,"city":"Jackson"},{"id":55,"lon":-78.1625,"state":"District Of Columbia","group":55,"lat":37.75292,"city":"Northern Virginia"},{"id":56,"lon":-95.36327,"state":"Texas","group":56,"lat":29.76328,"city":"Houston"},{"id":57,"lon":-73.85528,"state":"New York","group":57,"lat":40.84722,"city":"Westchester"},{"id":58,"lon":-78.74836,"state":"New York","group":58,"lat":42.43312,"city":"Brooklyn"},{"id":59,"lon":-118.43897,"state":"California","group":59,"lat":34.28195,"city":"San Fernando Valley"},{"id":60,"lon":-73.79763,"state":"New York","group":60,"lat":40.74982,"city":"Queens"},{"id":61,"lon":-122.2708,"state":"California","group":61,"lat":37.80437,"city":"Oakland East Bay"},{"id":62,"lon":-78.49557,"state":"Virginia","group":62,"lat":38.06319,"city":"Northern Virginia"},{"id":63,"lon":-76.61219,"state":"Maryland","group":63,"lat":39.29038,"city":"Baltimore"},{"id":64,"lon":-73.96625,"state":"New York","group":64,"lat":40.78343,"city":"Manhattan"},{"id":65,"lon":-81.65565,"state":"Florida","group":65,"lat":30.33218,"city":"Jacksonville"},{"id":66,"lon":-122.2754,"state":"District Of Columbia","group":66,"lat":47.56399,"city":"Washington Dc"},{"id":67,"lon":-97.32085,"state":"Texas","group":67,"lat":32.72541,"city":"Dallas Fort Worth"},{"id":68,"lon":-117.85311,"state":"California","group":68,"lat":33.78779,"city":"Orangecounty"},{"id":69,"lon":-122.33207,"state":"Washington","group":69,"lat":47.60621,"city":"Seattle Tacoma"},{"id":70,"lon":-96.80667,"state":"Texas","group":70,"lat":32.78306,"city":"Dallas Ft Worth"},{"id":71,"lon":-74.13986,"state":"New York","group":71,"lat":40.56233,"city":"Staten Island"},{"id":72,"lon":-90.04898,"state":"Tennessee","group":72,"lat":35.14953,"city":"Memphis"},{"id":73,"lon":-83.28032,"state":"Georgia","group":73,"lat":30.83334,"city":"Valdosta"},{"id":74,"lon":-115.13722,"state":"Nevada","group":74,"lat":36.17497,"city":"Las Vegas"},{"id":75,"lon":-76.428,"state":"Virginia","group":75,"lat":36.97876,"city":"Newportnews"},{"id":76,"lon":-81.09983,"state":"Georgia","group":76,"lat":32.08354,"city":"Savannah"},{"id":77,"lon":-76.58356,"state":"Virginia","group":77,"lat":36.72821,"city":"Suffolk"},{"id":78,"lon":-76.29827,"state":"Virginia","group":78,"lat":36.83543,"city":"Portsmouth"},{"id":79,"lon":-74.17237,"state":"New Jersey","group":79,"lat":40.73566,"city":"Newark"},{"id":80,"lon":-74.91321,"state":"New York","group":80,"lat":43.13729,"city":"Fairfield"},{"id":81,"lon":-77.46026,"state":"Virginia","group":81,"lat":37.55376,"city":"Richmond"},{"id":82,"lon":-78.71418,"state":"North Carolina","group":82,"lat":35.63571,"city":"Outer Banks"},{"id":83,"lon":-86.78444,"state":"Tennessee","group":83,"lat":36.16589,"city":"Nashville"},{"id":84,"lon":-76.27494,"state":"Virginia","group":84,"lat":36.81904,"city":"Chesapeake"},{"id":85,"lon":-122.2708,"state":"California","group":85,"lat":37.80437,"city":"Oakland"},{"id":86,"lon":-73.86641,"state":"New York","group":86,"lat":40.84985,"city":"Bronx"},{"id":87,"lon":-78.63861,"state":"North Carolina","group":87,"lat":35.7721,"city":"Raleigh"},{"id":88,"lon":-95.93779,"state":"Nebraska","group":88,"lat":41.25861,"city":"Omaha"},{"id":89,"lon":-120.65962,"state":"California","group":89,"lat":35.28275,"city":"San Luis Obispo"},{"id":90,"lon":-76.34522,"state":"Virginia","group":90,"lat":37.02987,"city":"Hampton Roads"},{"id":91,"lon":-94.84663,"state":"Missouri","group":91,"lat":39.76861,"city":"St Joseph"},{"id":92,"lon":-83.6324,"state":"Georgia","group":92,"lat":32.84069,"city":"Macon"},{"id":93,"lon":-93.60911,"state":"Iowa","group":93,"lat":41.60054,"city":"Des Moines"},{"id":94,"lon":-97.74306,"state":"Texas","group":94,"lat":30.26715,"city":"Austin"},{"id":95,"lon":-84.38798,"state":"Georgia","group":95,"lat":33.749,"city":"Atlanta"},{"id":96,"lon":-85.75941,"state":"Kentucky","group":96,"lat":38.25424,"city":"Louisville"},{"id":97,"lon":-120.90215,"state":"California","group":97,"lat":37.63826,"city":"Inland Empire"},{"id":98,"lon":-73.86457,"state":"New York","group":98,"lat":42.21731,"city":"Catskill"},{"id":99,"lon":-72.92816,"state":"Connecticut","group":99,"lat":41.30815,"city":"New Haven"},{"id":100,"lon":-118.43897,"state":"California","group":100,"lat":34.28195,"city":"San Fernando"},{"id":101,"lon":-73.86457,"state":"New York","group":101,"lat":42.21731,"city":"Catskills"},{"id":102,"lon":-84.98771,"state":"Georgia","group":102,"lat":32.46098,"city":"Columbus"},{"id":103,"lon":-80.60091,"state":"Ontario","group":103,"lat":40.46423,"city":"Toronto"},{"id":104,"lon":-117.39616,"state":"California","group":104,"lat":33.95335,"city":"Riverside"},{"id":105,"lon":-93.29824,"state":"Missouri","group":105,"lat":37.21533,"city":"Springfield"},{"id":106,"lon":-101.85517,"state":"Texas","group":106,"lat":33.57786,"city":"Lubbock"},{"id":107,"lon":-116.20345,"state":"Idaho","group":107,"lat":43.6135,"city":"Boise"},{"id":108,"lon":-81.49149,"state":"Georgia","group":108,"lat":31.14995,"city":"Brunswick"},{"id":109,"lon":-79.14225,"state":"Virginia","group":109,"lat":37.41375,"city":"Lynchburg"},{"id":110,"lon":-97.33754,"state":"Kansas","group":110,"lat":37.69224,"city":"Wichita"},{"id":111,"lon":-85.48078,"state":"Alabama","group":111,"lat":32.60986,"city":"Auburn"},{"id":112,"lon":-86.15804,"state":"Indiana","group":112,"lat":39.76838,"city":"Indianapolis"},{"id":113,"lon":-101.8313,"state":"Texas","group":113,"lat":35.222,"city":"Amarillo"},{"id":114,"lon":-118.24368,"state":"California","group":114,"lat":34.05223,"city":"Losangeles"},{"id":115,"lon":-86.1336,"state":"Indiana","group":115,"lat":40.48643,"city":"Kokomo"},{"id":116,"lon":-106.65114,"state":"New Mexico","group":116,"lat":35.08449,"city":"Albuquerque"},{"id":117,"lon":-87.41391,"state":"Indiana","group":117,"lat":39.4667,"city":"Terre Haute"},{"id":118,"lon":-71.80229,"state":"Massachusetts","group":118,"lat":42.26259,"city":"Worcester"},{"id":119,"lon":-81.97484,"state":"Georgia","group":119,"lat":33.47097,"city":"Augusta"},{"id":120,"lon":-90.19789,"state":"Missouri","group":120,"lat":38.62727,"city":"St Louis"},{"id":121,"lon":-122.39168,"state":"California","group":121,"lat":40.58654,"city":"Redding"},{"id":122,"lon":-93.75018,"state":"Louisiana","group":122,"lat":32.52515,"city":"Shreveport"},{"id":123,"lon":-98.49363,"state":"Texas","group":123,"lat":29.42412,"city":"San Antonio"}],"dates":["2014-07-01","2014-07-02","2014-07-03","2014-07-04","2014-07-05","2014-07-06","2014-07-07","2014-07-08","2014-07-09","2014-07-10","2014-07-11","2014-07-12","2014-07-13","2014-07-14","2014-07-15","2014-07-16","2014-07-17","2014-07-18","2014-07-19","2014-07-20","2014-07-21","2014-07-22","2014-07-23","2014-07-24","2014-07-25","2014-07-26","2014-07-27","2014-07-28","2014-07-29","2014-07-30"],"nodes":[{"id":0,"category":"asian","appear":[0,0,0,3,0,3,3,3,3,3,3,3,3,3,0,3,3,3,3,3,3,3,0,3,3,3,3,3,3,3],"color":0,"changeTimes":[1,1,1,2,3,4,4,4,4,4,4,4,4,4,5,6,6,6,6,6,6,6,7,8,8,8,8,8,8,8],"appearTimes":[2,2,2,8,11,12,17,21,31,44,46,54,62,68,79,92,97,105,115,122,127,130,133,142,146,148,151,155,159,160],"label":"2067740601","categoryRecord":[{"asian":2},{},{},{"asian":6},{"asian":3},{"asian":1},{"asian":5},{"asian":4},{"asian":10},{"asian":13},{"asian":2},{"asian":8},{"asian":8},{"asian":6},{"asian":11},{"asian":13},{"asian":5},{"asian":8},{"asian":10},{"asian":7},{"asian":5},{"asian":3},{"asian":3},{"asian":9},{"asian":4},{"asian":2},{"asian":3},{"asian":4},{"asian":4},{"asian":1}]},{"id":1,"category":"asian","appear":[1,1,1,1,2,1,1,1,2,1,1,2,1,2,2,1,1,2,1,2,1,1,1,2,1,1,2,1,1,2],"color":0,"changeTimes":[1,1,1,1,2,3,3,3,4,5,5,6,7,8,8,9,9,10,11,12,13,13,13,14,15,15,16,17,17,18],"appearTimes":[4,6,10,10,14,16,18,24,29,35,42,49,56,63,69,75,82,88,96,99,103,109,118,121,126,135,140,148,153,160],"label":"4089075683","categoryRecord":[{"asian":4},{"asian":2},{"asian":4},{},{"asian":4},{"asian":2},{"asian":2},{"asian":6},{"asian":5},{"asian":6},{"asian":7},{"asian":7},{"asian":7},{"asian":7},{"asian":6},{"asian":6},{"asian":7},{"asian":6},{"asian":8},{"asian":3},{"asian":4},{"asian":6},{"asian":9},{"asian":3},{"asian":5},{"asian":9},{"asian":5},{"asian":8},{"asian":5},{"asian":7}]},{"id":2,"category":"asian","appear":[2,2,2,2,2,2,2,2,2,2,2,2,2,2,2,2,2,2,2,2,2,2,2,2,2,2,2,2,2,2],"color":0,"changeTimes":[1,1,1,1,1,1,1,1,1,1,1,1,1,1,1,1,1,1,1,1,1,1,1,1,1,1,1,1,1,1],"appearTimes":[4,8,11,14,14,16,18,18,25,31,35,37,42,46,51,56,62,66,67,68,71,79,85,86,90,96,101,104,112,118],"label":"4084163877","categoryRecord":[{"french":1,"asian":3},{"asian":4},{"asian":3},{"asian":3},{},{"asian":2},{"asian":2},{},{"asian":7},{"asian":6},{"asian":4},{"asian":2},{"asian":5},{"asian":4},{"asian":5},{"asian":5},{"asian":6},{"asian":4},{"asian":1},{"asian":1},{"asian":3},{"asian":8},{"asian":6},{"asian":1},{"asian":4},{"asian":6},{"asian":5},{"asian":3},{"asian":8},{"asian":6}]},{"id":3,"category":"asian","appear":[3,3,3,3,3,3,48,3,3,48,3,3,3,3,3,3,3,3,3,48,48,48,3,3,3,3,3,3,3,3],"color":0,"changeTimes":[1,1,1,1,1,1,2,3,3,4,5,5,5,5,5,5,5,5,5,6,6,6,7,7,7,7,7,7,7,7],"appearTimes":[1,1,1,3,5,7,9,17,25,28,36,43,48,54,60,65,73,84,89,94,94,96,100,102,110,116,118,124,127,128],"label":"2067740892","categoryRecord":[{"asian":1},{},{},{"asian":2},{"asian":2},{"asian":2},{"asian":2},{"asian":8},{"asian":8},{"asian":3},{"asian":8},{"asian":7},{"asian":5},{"asian":6},{"asian":6},{"asian":5},{"asian":8},{"asian":11},{"asian":5},{"asian":5},{},{"asian":2},{"asian":4},{"asian":2},{"asian":8},{"asian":6},{"asian":2},{"asian":6},{"asian":3},{"asian":1}]},{"id":4,"category":"asian","appear":[4,4,10,4,4,4,4,4,61,61,61,61,61,61,61,4,61,61,61,4,61,4,4,61,61,61,61,61,61,61],"color":0,"changeTimes":[1,1,2,3,3,3,3,3,4,4,4,4,4,4,4,5,6,6,6,7,8,9,9,10,10,10,10,10,10,10],"appearTimes":[2,4,8,15,19,21,28,33,38,48,53,58,64,70,75,84,88,88,89,93,99,105,111,121,127,131,133,140,144,148],"label":"4157382314","categoryRecord":[{"asian":2},{"asian":2},{"asian":4},{"asian":7},{"asian":4},{"asian":2},{"asian":7},{"asian":5},{"asian":5},{"asian":10},{"asian":5},{"asian":5},{"asian":6},{"asian":6},{"asian":5},{"asian":9},{"asian":4},{},{"asian":1},{"asian":4},{"asian":6},{"asian":6},{"asian":6},{"asian":10},{"asian":6},{"asian":4},{"asian":2},{"asian":7},{"asian":4},{"asian":4}]},{"id":5,"category":"asian","appear":[0,0,0,0,3,3,0,0,3,0,0,0,0,0,0,0,0,0,0,0,0,3,0,3,3,3,3,3,3,3],"color":0,"changeTimes":[1,1,1,1,2,2,3,3,4,5,5,5,5,5,5,5,5,5,5,5,5,6,7,8,8,8,8,8,8,8],"appearTimes":[2,2,2,7,9,9,17,25,33,41,48,53,57,66,75,84,91,98,106,112,116,124,129,133,135,137,138,142,144,145],"label":"2067740664","categoryRecord":[{"asian":2},{},{},{"asian":5},{"asian":2},{},{"asian":8},{"asian":8},{"asian":8},{"asian":8},{"asian":7},{"asian":5},{"asian":4},{"asian":9},{"asian":9},{"asian":9},{"asian":7},{"asian":7},{"asian":8},{"asian":6},{"asian":4},{"asian":8},{"asian":5},{"asian":4},{"asian":2},{"asian":2},{"asian":1},{"asian":4},{"asian":2},{"asian":1}]},{"id":6,"category":"asian","appear":[2,1,2,2,2,2,2,2,2,2,2,2,2,2,2,2,2,2,67,2,2,2,2,2,2,2,2,2,2,2],"color":0,"changeTimes":[1,2,3,3,3,3,3,3,3,3,3,3,3,3,3,3,3,3,4,5,5,5,5,5,5,5,5,5,5,5],"appearTimes":[12,17,23,31,33,37,43,51,62,73,83,93,105,116,123,130,137,137,138,140,146,156,167,173,182,190,198,210,219,227],"label":"4089077677","categoryRecord":[{"asian":12},{"asian":5},{"asian":6},{"asian":8},{"asian":2},{"asian":4},{"asian":6},{"asian":8},{"asian":11},{"asian":11},{"asian":10},{"asian":10},{"asian":12},{"asian":11},{"asian":7},{"asian":7},{"asian":7},{},{"asian":1},{"asian":2},{"asian":6},{"asian":10},{"asian":11},{"asian":6},{"asian":9},{"asian":8},{"asian":8},{"asian":12},{"asian":9},{"asian":8}]},{"id":7,"category":"asian","appear":[4,4,4,4,4,4,4,50,4,4,50,4,4,50,4,50,50,4,50,50,4,50,50,4,50,4,4,50,50,4],"color":0,"changeTimes":[1,1,1,1,1,1,1,2,3,3,4,5,5,6,7,8,8,9,10,10,11,12,12,13,14,15,15,16,16,17],"appearTimes":[10,16,24,37,43,54,67,73,83,98,111,121,133,147,162,175,185,193,204,211,214,229,241,252,260,271,283,300,316,321],"label":"4156833245","categoryRecord":[{"asian":10},{"asian":6},{"french":1,"asian":7},{"asian":13},{"asian":6},{"asian":11},{"asian":13},{"asian":6},{"asian":10},{"asian":15},{"asian":13},{"asian":10},{"asian":12},{"asian":14},{"asian":15},{"asian":13},{"asian":10},{"asian":8},{"asian":11},{"asian":7},{"asian":3},{"asian":15},{"asian":12},{"asian":11},{"asian":8},{"asian":11},{"asian":12},{"asian":17},{"asian":16},{"asian":5}]},{"id":8,"category":"rican","appear":[5,5,5,5,5,5,5,5,5,5,5,5,5,5,5,5,5,5,5,5,5,5,5,5,5,5,5,5,5,5],"color":1,"changeTimes":[1,1,1,1,1,1,1,1,1,1,1,1,1,1,1,1,1,1,1,1,1,1,1,1,1,1,1,1,1,1],"appearTimes":[11,26,32,39,44,45,45,45,53,57,65,65,65,65,65,65,67,72,75,76,78,81,82,87,92,95,104,112,126,130],"label":"2168041719","categoryRecord":[{"rican":11},{"rican":15},{"rican":6},{"rican":7},{"rican":5},{"rican":1},{},{},{"rican":8},{"rican":4},{"rican":8},{},{},{},{},{},{"rican":2},{"rican":5},{"rican":3},{"rican":1},{"rican":2},{"rican":3},{"rican":1},{"rican":5},{"rican":5},{"rican":3},{"rican":9},{"rican":8},{"rican":14},{"rican":4}]},{"id":9,"category":"white","appear":[6,24,27,6,41,11,11,6,40,32,8,8,24,24,32,45,41,66,41,32,32,45,8,45,39,39,39,41,39,41],"color":2,"changeTimes":[1,2,3,4,5,6,6,7,8,9,10,10,11,11,12,13,14,15,16,17,17,18,19,20,21,21,21,22,23,24],"appearTimes":[4,10,15,22,30,32,41,48,55,59,63,69,73,78,81,89,92,96,135,167,167,170,177,187,189,189,189,197,206,210],"label":"9176001065","categoryRecord":[{"white":2,"french":2},{"latin":1,"white":5},{"latin":1,"white":3,"french":1},{"white":7},{"white":8},{"white":2},{"white":9},{"white":6,"french":1},{"white":7},{"white":4},{"white":3,"french":1},{"white":5,"french":1},{"white":3,"french":1},{"white":5},{"white":3},{"latin":2,"white":6},{"white":3},{"latin":1,"white":3},{"white":39},{"white":32},{},{"latin":1,"white":1,"french":1},{"latin":1,"white":4,"french":2},{"latin":2,"white":7,"french":1},{"white":2},{},{},{"white":8},{"white":8,"french":1},{"white":4}]},{"id":10,"category":"latina","appear":[7,7,7,7,7,7,7,7,7,7,7,7,7,7,7,7,7,7,7,7,7,7,7,7,7,7,7,7,7,7],"color":3,"changeTimes":[1,1,1,1,1,1,1,1,1,1,1,1,1,1,1,1,1,1,1,1,1,1,1,1,1,1,1,1,1,1],"appearTimes":[2,5,5,5,5,5,5,5,5,5,5,5,5,5,5,5,5,5,5,5,5,5,5,5,5,5,5,5,5,5],"label":"4389936054","categoryRecord":[{"latina":2},{"latina":3},{},{},{},{},{},{},{},{},{},{},{},{},{},{},{},{},{},{},{},{},{},{},{},{},{},{},{},{}]},{"id":11,"category":"ebony","appear":[8,8,8,8,32,32,32,54,54,54,72,72,72,72,83,83,83,83,83,83,96,96,96,96,112,112,112,112,120,120],"color":4,"changeTimes":[1,1,1,1,2,2,2,3,3,3,4,4,4,4,5,5,5,5,5,5,6,6,6,6,7,7,7,7,8,8],"appearTimes":[4,12,12,12,14,14,15,19,20,24,26,30,36,38,40,44,46,50,50,52,60,85,122,122,130,182,211,213,216,256],"label":"6824333297","categoryRecord":[{"ebony":3,"french":1},{"ebony":8},{},{},{"ebony":2},{},{"ebony":1},{"ebony":4},{"ebony":1},{"ebony":4},{"ebony":2},{"ebony":4},{"ebony":6},{"ebony":2},{"ebony":2},{"ebony":4},{"ebony":2},{"ebony":4},{},{"ebony":2},{"ebony":8},{"ebony":25},{"ebony":37},{},{"indian":7,"ebony":1},{"indian":8,"ebony":44},{"ebony":29},{"indian":2},{"ebony":3},{"ebony":40}]},{"id":12,"category":"asian","appear":[4,4,4,4,4,4,4,4,4,4,4,4,4,4,4,4,4,4,4,4,4,4,4,4,4,4,4,4,4,4],"color":0,"changeTimes":[1,1,1,1,1,1,1,1,1,1,1,1,1,1,1,1,1,1,1,1,1,1,1,1,1,1,1,1,1,1],"appearTimes":[2,2,2,6,10,10,13,15,21,29,32,34,38,44,47,53,59,61,62,63,69,74,77,79,81,86,91,97,103,111],"label":"4157382275","categoryRecord":[{"asian":2},{},{},{"asian":4},{"asian":4},{},{"asian":3},{"asian":2},{"asian":6},{"asian":8},{"asian":3},{"asian":2},{"asian":4},{"asian":6},{"asian":3},{"asian":6},{"asian":6},{"asian":2},{"asian":1},{"asian":1},{"asian":6},{"asian":5},{"asian":3},{"asian":2},{"asian":2},{"asian":5},{"asian":5},{"asian":6},{"asian":6},{"asian":8}]},{"id":13,"category":"asian","appear":[9,26,30,30,17,30,30,9,9,35,58,35,35,35,60,60,30,35,35,35,60,35,35,57,60,60,9,60,60,57],"color":0,"changeTimes":[1,2,3,3,4,5,5,6,6,7,8,9,9,9,10,10,11,12,12,12,13,14,14,15,16,16,17,18,18,19],"appearTimes":[2,4,8,8,9,11,12,14,25,36,42,49,58,70,77,88,97,106,113,117,126,135,145,150,158,168,185,188,188,190],"label":"6468756117","categoryRecord":[{"asian":2},{"asian":2},{"asian":4},{},{"asian":1},{"asian":2},{"asian":1},{"asian":2},{"asian":11},{"asian":11},{"asian":6},{"asian":7},{"asian":9},{"asian":12},{"asian":7},{"asian":11},{"asian":9},{"asian":9},{"asian":7},{"asian":4},{"asian":9},{"asian":9},{"asian":10},{"asian":5},{"asian":8},{"asian":10},{"asian":17},{"asian":3},{},{"asian":2}]},{"id":14,"category":"white","appear":[11,20,20,20,22,11,11,11,11,11,11,11,20,11,11,81,90,21,11,11,11,11,20,20,21,20,21,20,21,21],"color":2,"changeTimes":[1,2,2,2,3,4,4,4,4,4,4,4,5,6,6,7,8,9,10,10,10,10,11,11,12,13,14,15,16,16],"appearTimes":[2,5,5,5,11,17,19,25,34,43,51,61,76,96,114,130,134,140,151,161,164,164,171,171,172,184,195,200,202,202],"label":"7577856264","categoryRecord":[{"white":2},{"white":3},{},{},{"white":6},{"white":6},{"white":2},{"white":6},{"white":9},{"white":9},{"white":8},{"white":10},{"white":15},{"white":20},{"white":18},{"white":16},{"white":4},{"white":6},{"white":11},{"white":10},{"white":3},{},{"white":7},{},{"white":1},{"white":12},{"white":11},{"white":5},{"white":2},{}]},{"id":15,"category":"asian","appear":[4,4,4,4,4,4,4,4,4,4,4,4,4,4,61,4,4,61,4,4,4,4,4,4,4,4,61,4,4,61],"color":0,"changeTimes":[1,1,1,1,1,1,1,1,1,1,1,1,1,1,2,3,3,4,5,5,5,5,5,5,5,5,6,7,7,8],"appearTimes":[4,8,12,20,24,31,34,39,46,55,62,69,72,76,84,93,99,103,106,107,113,119,126,138,145,148,152,161,167,168],"label":"4157382305","categoryRecord":[{"asian":4},{"asian":4},{"asian":4},{"asian":8},{"asian":4},{"asian":7},{"asian":3},{"asian":5},{"asian":7},{"asian":9},{"asian":7},{"asian":7},{"asian":3},{"asian":4},{"asian":8},{"asian":9},{"asian":6},{"asian":4},{"asian":3},{"asian":1},{"asian":6},{"asian":6},{"asian":7},{"asian":12},{"asian":7},{"asian":3},{"asian":4},{"asian":9},{"asian":6},{"asian":1}]},{"id":16,"category":"asian","appear":[12,12,12,12,12,12,12,12,12,12,12,12,12,12,12,12,12,12,12,12,12,12,12,12,12,12,12,12,12,12],"color":0,"changeTimes":[1,1,1,1,1,1,1,1,1,1,1,1,1,1,1,1,1,1,1,1,1,1,1,1,1,1,1,1,1,1],"appearTimes":[3,3,3,3,3,3,3,3,3,3,3,3,3,3,3,3,3,3,3,3,3,3,3,3,3,3,3,3,3,3],"label":"6464169269","categoryRecord":[{"asian":3},{},{},{},{},{},{},{},{},{},{},{},{},{},{},{},{},{},{},{},{},{},{},{},{},{},{},{},{},{}]},{"id":17,"category":"cuban","appear":[13,13,33,33,33,33,33,33,33,33,33,33,33,33,33,33,33,33,33,33,33,33,33,33,14,14,33,33,33,111],"color":10,"changeTimes":[1,1,2,2,2,2,2,2,2,2,2,2,2,2,2,2,2,2,2,2,2,2,2,2,3,3,4,4,4,5],"appearTimes":[2,4,6,6,8,8,8,9,10,29,33,33,33,33,33,33,51,54,55,55,74,79,80,80,84,100,116,118,153,172],"label":"4046233100","categoryRecord":[{"ebony":2},{"ebony":2},{"ebony":2},{},{"ebony":2},{},{},{"cuban":1},{"white":1},{"cuban":8,"ebony":11},{"cuban":2,"ebony":2},{},{},{},{},{},{"cuban":11,"ebony":7},{"white":1,"ebony":2},{"ebony":1},{},{"ebony":19},{"cuban":5},{"cuban":1},{},{"cuban":2,"white":2},{"cuban":16},{"cuban":16},{"cuban":2},{"cuban":35},{"cuban":19}]},{"id":18,"category":"ebony","appear":[14,14,31,31,31,31,31,31,65,65,65,65,76,76,76,76,76,92,92,95,95,95,95,95,95,95,95,119,119,119],"color":4,"changeTimes":[1,1,2,2,2,2,2,2,3,3,3,3,4,4,4,4,4,5,5,6,6,6,6,6,6,6,6,7,7,7],"appearTimes":[2,2,7,86,86,86,86,86,88,93,97,99,101,112,112,113,114,119,269,271,277,357,359,359,359,359,359,363,431,499],"label":"7024185244","categoryRecord":[{"ebony":2},{},{"french":1,"ebony":4},{"latin":79},{},{},{},{},{"ebony":2},{"ebony":5},{"ebony":4},{"ebony":2},{"ebony":2},{"ebony":11},{},{"latin":1},{"ebony":1},{"ebony":5},{"ebony":150},{"ebony":2},{"ebony":6},{"ebony":80},{"ebony":2},{},{},{},{},{"ebony":4},{"ebony":68},{"latin":68}]},{"id":19,"category":"asian","appear":[1,1,2,2,2,1,1,1,2,2,2,1,1,2,1,1,2,1,1,1,2,2,2,2,2,2,1,2,2,2],"color":0,"changeTimes":[1,1,2,2,2,3,3,3,4,4,4,5,5,6,7,7,8,9,9,9,10,10,10,10,10,10,11,12,12,12],"appearTimes":[4,8,12,14,20,23,23,29,37,43,48,55,57,65,70,72,79,83,85,87,95,102,107,109,115,122,126,132,136,140],"label":"4089070127","categoryRecord":[{"asian":4},{"asian":4},{"asian":4},{"asian":2},{"asian":6},{"asian":3},{},{"asian":6},{"asian":8},{"asian":6},{"asian":5},{"asian":7},{"asian":2},{"asian":8},{"asian":5},{"asian":2},{"asian":7},{"asian":4},{"asian":2},{"asian":2},{"asian":8},{"asian":7},{"asian":5},{"asian":2},{"asian":6},{"asian":7},{"asian":4},{"asian":6},{"asian":4},{"asian":4}]},{"id":20,"category":"asian","appear":[4,4,4,4,4,4,4,4,4,4,4,4,4,4,4,4,4,4,4,4,4,4,4,4,4,4,4,4,4,4],"color":0,"changeTimes":[1,1,1,1,1,1,1,1,1,1,1,1,1,1,1,1,1,1,1,1,1,1,1,1,1,1,1,1,1,1],"appearTimes":[3,3,3,3,3,3,6,6,6,7,7,7,8,8,8,8,8,8,8,8,8,8,8,8,11,11,11,12,12,12],"label":"3624351415","categoryRecord":[{"asian":3},{},{},{},{},{},{"asian":3},{},{},{"asian":1},{},{},{"asian":1},{},{},{},{},{},{},{},{},{},{},{},{"asian":3},{},{},{"asian":1},{},{}]},{"id":21,"category":"rican","appear":[15,15,15,15,15,15,32,32,32,32,32,32,32,32,32,32,32,32,32,32,32,32,32,32,32,32,32,32,32,32],"color":1,"changeTimes":[1,1,1,1,1,1,2,2,2,2,2,2,2,2,2,2,2,2,2,2,2,2,2,2,2,2,2,2,2,2],"appearTimes":[3,3,4,5,38,38,56,106,107,107,107,107,107,107,107,107,107,107,137,139,139,139,139,139,139,139,139,139,139,139],"label":"7024901269","categoryRecord":[{"rican":3},{},{"rican":1},{"rican":1},{"rican":33},{},{"rican":18},{"rican":50},{"rican":1},{},{},{},{},{},{},{},{},{},{"rican":30},{"rican":2},{},{},{},{},{},{},{},{},{},{}]},{"id":22,"category":"spanish","appear":[16,16,16,38,38,38,47,47,47,47,38,38,38,38,38,89,89,2,2,10,10,10,10,10,4,4,4,4,4,4],"color":8,"changeTimes":[1,1,1,2,2,2,3,3,3,3,4,4,4,4,4,5,5,6,6,7,7,7,7,7,8,8,8,8,8,8],"appearTimes":[2,2,2,4,4,4,37,37,37,37,68,68,68,68,68,70,70,72,74,105,107,107,107,107,141,141,141,141,141,141],"label":"9162675765","categoryRecord":[{"filipino":2},{},{},{"spanish":1,"filipino":1},{},{},{"spanish":15,"filipino":18},{},{},{},{"spanish":12,"filipino":19},{},{},{},{},{"spanish":2},{},{"spanish":2},{"spanish":2},{"spanish":31},{"spanish":2},{},{},{},{"spanish":34},{},{},{},{},{}]},{"id":23,"category":"asian","appear":[4,4,4,4,4,4,4,4,4,4,4,4,4,4,4,4,4,4,4,4,4,4,4,4,4,4,4,4,4,4],"color":0,"changeTimes":[1,1,1,1,1,1,1,1,1,1,1,1,1,1,1,1,1,1,1,1,1,1,1,1,1,1,1,1,1,1],"appearTimes":[1,1,3,3,3,3,3,3,3,3,3,3,3,3,5,5,5,5,5,5,5,5,5,5,5,5,7,7,7,7],"label":"2434415738","categoryRecord":[{"asian":1},{},{"asian":2},{},{},{},{},{},{},{},{},{},{},{},{"asian":2},{},{},{},{},{},{},{},{},{},{},{},{"asian":2},{},{},{}]},{"id":24,"category":"asian","appear":[17,30,30,17,17,30,30,30,60,60,35,60,30,60,35,30,60,60,9,60,30,30,60,60,35,57,60,60,60,60],"color":0,"changeTimes":[1,2,2,3,3,4,4,4,5,5,6,7,8,9,10,11,12,12,13,14,15,15,16,16,17,18,19,19,19,19],"appearTimes":[1,2,2,3,3,5,6,6,17,33,47,59,68,84,92,100,109,116,125,132,142,151,162,171,178,187,199,199,199,200],"label":"9173655170","categoryRecord":[{"asian":1},{"asian":1},{},{"asian":1},{},{"asian":2},{"asian":1},{},{"asian":11},{"asian":16},{"asian":14},{"asian":12},{"asian":9},{"asian":16},{"asian":8},{"asian":8},{"asian":9},{"asian":7},{"asian":9},{"asian":7},{"asian":10},{"asian":9},{"asian":11},{"asian":9},{"asian":7},{"asian":9},{"asian":12},{},{},{"asian":1}]},{"id":25,"category":"white","appear":[18,18,18,18,30,30,18,18,18,18,18,18,26,26,26,26,9,9,9,9,18,18,18,18,18,18,18,18,18,18],"color":2,"changeTimes":[1,1,1,1,2,2,3,3,3,3,3,3,4,4,4,4,5,5,5,5,6,6,6,6,6,6,6,6,6,6],"appearTimes":[12,13,13,13,39,51,66,66,66,66,66,66,72,75,75,75,88,89,104,104,115,144,146,146,146,146,146,146,146,146],"label":"9173877848","categoryRecord":[{"white":8,"rican":4},{"white":1},{},{},{"white":11,"rican":15},{"white":5,"rican":7},{"white":10,"rican":5},{},{},{},{},{},{"white":4,"rican":2},{"white":2,"rican":1},{},{},{"white":6,"rican":7},{"rican":1},{"white":10,"rican":5},{},{"white":5,"rican":6},{"white":14,"rican":15},{"white":1,"rican":1},{},{},{},{},{},{},{}]},{"id":26,"category":"latina","appear":[-1,19,19,19,19,38,29,29,29,38,38,29,38,38,38,38,38,29,29,29,68,38,29,38,38,38,38,38,38,38],"color":3,"changeTimes":[0,1,1,1,1,2,3,3,3,4,4,5,6,6,6,6,6,7,7,7,8,9,10,11,11,11,11,11,11,11],"appearTimes":[0,9,9,11,11,13,15,15,27,36,44,50,84,102,105,113,117,118,119,119,131,150,164,166,169,172,172,173,173,173],"label":"5623880466","categoryRecord":[{},{"latina":9},{},{"latina":2},{},{"latina":2},{"latina":2},{},{"latina":12},{"latina":9},{"latina":8},{"latina":6},{"latina":34},{"latina":18},{"latina":3},{"latina":8},{"latina":4},{"latina":1},{"latina":1},{},{"latina":12},{"latina":19},{"latina":14},{"latina":2},{"latina":3},{"latina":3},{},{"latina":1},{},{}]},{"id":27,"category":"asian","appear":[-1,23,23,23,23,23,23,23,66,66,66,66,66,66,66,87,40,40,40,40,40,33,74,74,74,94,94,94,94,123],"color":0,"changeTimes":[0,1,1,1,1,1,1,1,2,2,2,2,2,2,2,3,4,4,4,4,4,5,6,6,6,7,7,7,7,8],"appearTimes":[0,46,46,46,46,46,46,46,53,90,90,90,90,90,90,138,189,189,193,193,193,242,257,257,257,302,304,344,346,393],"label":"7029173787","categoryRecord":[{},{"asian":46},{},{},{},{},{},{},{"asian":7},{"asian":37},{},{},{},{},{},{"asian":48},{"asian":51},{},{"asian":4},{},{},{"asian":49},{"asian":15},{},{},{"asian":45},{"asian":2},{"asian":40},{"asian":2},{"asian":47}]},{"id":28,"category":"latina","appear":[-1,28,29,29,29,29,45,45,45,45,45,45,2,74,74,74,74,74,74,74,74,100,59,29,28,28,28,28,74,74],"color":3,"changeTimes":[0,1,2,2,2,2,3,3,3,3,3,3,4,5,5,5,5,5,5,5,5,6,7,8,9,9,9,9,10,10],"appearTimes":[0,2,41,41,41,41,43,63,69,73,77,83,100,101,104,108,109,110,110,110,110,112,117,125,128,151,154,156,179,180],"label":"2136400765","categoryRecord":[{},{"latina":2},{"latin":2,"latina":37},{},{},{},{"latina":2},{"latina":20},{"latin":1,"latina":5},{"latin":1,"latina":3},{"latin":3,"latina":1},{"latina":6},{"latina":17},{"latina":1},{"latina":3},{"latina":4},{"latina":1},{"latina":1},{},{},{},{"latin":2},{"latin":2,"latina":3},{"latin":5,"latina":3},{"latin":3},{"spanish":2,"latin":1,"latina":20},{"spanish":3},{"spanish":1,"latin":1},{"latin":2,"latina":14,"hispanic":7},{"latina":1}]},{"id":29,"category":"rican","appear":[-1,-1,9,9,9,9,9,9,9,9,9,9,63,63,63,66,63,63,63,63,63,99,99,99,99,99,118,118,118,118],"color":1,"changeTimes":[0,0,1,1,1,1,1,1,1,1,1,1,2,2,2,3,4,4,4,4,4,5,5,5,5,5,6,6,6,6],"appearTimes":[0,0,2,25,25,25,25,25,25,25,25,25,27,27,27,58,73,73,73,73,73,91,103,103,103,103,117,117,117,117],"label":"3477714882","categoryRecord":[{},{},{"rican":2},{"rican":23},{},{},{},{},{},{},{},{},{"rican":2},{},{},{"rican":31},{"rican":15},{},{},{},{},{"rican":18},{"rican":12},{},{},{},{"rican":14},{},{},{}]},{"id":30,"category":"asian","appear":[-1,-1,34,34,34,34,34,53,34,67,67,34,67,34,34,67,34,34,67,67,34,67,67,34,67,67,34,67,53,34],"color":0,"changeTimes":[0,0,1,1,1,1,1,2,3,4,4,5,6,7,7,8,9,9,10,10,11,12,12,13,14,14,15,16,17,18],"appearTimes":[0,0,1,1,1,4,6,13,22,31,39,43,46,51,58,63,66,73,80,87,91,95,102,109,114,118,125,131,140,145],"label":"9724972145","categoryRecord":[{},{},{"asian":1},{},{},{"asian":3},{"asian":2},{"asian":7},{"asian":9},{"asian":9},{"asian":8},{"asian":4},{"asian":3},{"asian":5},{"asian":7},{"asian":5},{"asian":3},{"asian":7},{"asian":7},{"asian":7},{"asian":4},{"asian":4},{"asian":7},{"asian":7},{"asian":5},{"asian":4},{"asian":7},{"asian":6},{"asian":9},{"asian":5}]},{"id":31,"category":"asian","appear":[-1,-1,-1,35,35,17,17,60,60,60,60,60,60,60,60,60,60,60,64,60,60,60,60,60,60,60,60,60,64,60],"color":0,"changeTimes":[0,0,0,1,1,2,2,3,3,3,3,3,3,3,3,3,3,3,4,5,5,5,5,5,5,5,5,5,6,7],"appearTimes":[0,0,0,2,3,4,4,6,16,25,35,45,55,65,76,86,98,110,120,128,140,149,163,169,180,188,195,206,212,218],"label":"7187048986","categoryRecord":[{},{},{},{"asian":2},{"asian":1},{"asian":1},{},{"asian":2},{"asian":10},{"asian":9},{"asian":10},{"asian":10},{"asian":10},{"asian":10},{"asian":11},{"asian":10},{"asian":12},{"asian":12},{"asian":10},{"asian":8},{"asian":12},{"asian":9},{"asian":14},{"asian":6},{"asian":11},{"asian":8},{"asian":7},{"asian":11},{"asian":6},{"asian":6}]},{"id":32,"category":"latin","appear":[-1,-1,-1,36,36,43,43,43,43,43,73,73,73,73,73,73,73,73,73,73,73,73,73,108,108,115,115,115,115,115],"color":7,"changeTimes":[0,0,0,1,1,2,2,2,2,2,3,3,3,3,3,3,3,3,3,3,3,3,3,4,4,5,5,5,5,5],"appearTimes":[0,0,0,16,95,158,158,158,158,158,237,237,237,237,237,237,237,237,237,237,237,237,237,318,318,322,322,322,322,322],"label":"6464195615","categoryRecord":[{},{},{},{"latin":16},{"latin":63,"asian":16},{"latin":1,"asian":62},{},{},{},{},{"latina":37,"indian":42},{},{},{},{},{},{},{},{},{},{},{},{},{"thai":81},{},{"indian":4},{},{},{},{}]},{"id":33,"category":"latina","appear":[-1,-1,-1,37,37,37,46,46,56,56,56,56,56,37,37,37,37,37,37,94,56,56,56,56,106,116,74,74,74,74],"color":3,"changeTimes":[0,0,0,1,1,1,2,2,3,3,3,3,3,4,4,4,4,4,4,5,6,6,6,6,7,8,9,9,9,9],"appearTimes":[0,0,0,16,16,16,31,83,86,87,88,105,106,108,108,110,110,110,110,116,117,118,118,147,150,154,156,162,165,181],"label":"7026290230","categoryRecord":[{},{},{},{"latina":16},{},{},{"latina":15},{"latina":52},{"latina":3},{"latina":1},{"spanish":1},{"latina":17},{"spanish":1},{"spanish":2},{},{"latina":2},{},{},{},{"latina":6},{"latina":1},{"latina":1},{},{"latina":29},{"latina":3},{"latina":4},{"latina":2},{"latina":6},{"latina":3},{"spanish":2,"latina":14}]},{"id":34,"category":"dominican","appear":[-1,-1,-1,-1,44,44,44,44,44,44,44,44,44,44,44,44,44,44,44,44,44,44,44,44,44,44,44,44,44,44],"color":9,"changeTimes":[0,0,0,0,1,1,1,1,1,1,1,1,1,1,1,1,1,1,1,1,1,1,1,1,1,1,1,1,1,1],"appearTimes":[0,0,0,0,49,49,51,51,51,51,51,51,51,51,51,51,51,51,51,51,51,51,51,51,51,51,51,51,51,51],"label":"4079144084","categoryRecord":[{},{},{},{},{"dominican":49},{},{"dominican":2},{},{},{},{},{},{},{},{},{},{},{},{},{},{},{},{},{},{},{},{},{},{},{}]},{"id":35,"category":"asian","appear":[-1,-1,-1,-1,-1,-1,-1,51,38,38,51,51,38,38,38,51,38,38,51,51,51,38,38,51,51,51,51,51,38,38],"color":0,"changeTimes":[0,0,0,0,0,0,0,1,2,2,3,3,4,4,4,5,6,6,7,7,7,8,8,9,9,9,9,9,10,10],"appearTimes":[0,0,0,0,0,0,0,6,14,21,30,39,47,55,64,73,79,82,89,93,101,111,120,131,145,154,162,168,176,181],"label":"6265516165","categoryRecord":[{},{},{},{},{},{},{},{"asian":6},{"asian":8},{"asian":7},{"asian":9},{"asian":9},{"asian":8},{"asian":8},{"asian":9},{"asian":9},{"asian":6},{"asian":3},{"asian":7},{"asian":4},{"asian":8},{"asian":10},{"asian":9},{"asian":11},{"asian":14},{"asian":9},{"asian":8},{"asian":6},{"asian":8},{"asian":5}]},{"id":36,"category":"ebony","appear":[-1,-1,-1,-1,-1,-1,-1,44,44,44,44,66,66,66,66,55,55,55,55,55,55,55,55,55,55,55,55,55,55,55],"color":4,"changeTimes":[0,0,0,0,0,0,0,1,1,1,1,2,2,2,2,3,3,3,3,3,3,3,3,3,3,3,3,3,3,3],"appearTimes":[0,0,0,0,0,0,0,9,16,16,16,19,27,39,48,51,63,74,81,96,109,120,121,121,121,121,121,121,121,121],"label":"9784944706","categoryRecord":[{},{},{},{},{},{},{},{"ebony":8,"brazilian":1},{"ebony":4,"brazilian":3},{},{},{"ebony":3},{"ebony":8},{"ebony":12},{"ebony":9},{"ebony":3},{"ebony":12},{"ebony":9,"asian":2},{"ebony":7},{"ebony":12,"asian":3},{"ebony":13},{"ebony":11},{"ebony":1},{},{},{},{},{},{},{}]},{"id":37,"category":"dominican","appear":[-1,-1,-1,-1,-1,-1,-1,55,55,62,62,62,62,62,62,30,30,30,30,30,30,30,55,62,62,62,62,62,62,62],"color":9,"changeTimes":[0,0,0,0,0,0,0,1,1,2,2,2,2,2,2,3,3,3,3,3,3,3,4,5,5,5,5,5,5,5],"appearTimes":[0,0,0,0,0,0,0,2,11,19,27,34,40,40,40,44,50,55,60,60,60,60,63,71,78,82,88,93,93,93],"label":"9785639065","categoryRecord":[{},{},{},{},{},{},{},{"dominican":2},{"dominican":9},{"dominican":6,"brazilian":2},{"dominican":7,"brazilian":1},{"dominican":5,"brazilian":2},{"dominican":4,"brazilian":2},{},{},{"latina":1,"dominican":3},{"dominican":6},{"dominican":5},{"dominican":5},{},{},{},{"dominican":3},{"dominican":8},{"dominican":7},{"dominican":4},{"dominican":6},{"dominican":5},{},{}]},{"id":38,"category":"asian","appear":[-1,-1,-1,-1,-1,-1,-1,38,59,38,38,38,38,38,38,38,38,38,38,59,38,38,38,59,38,38,38,38,59,38],"color":0,"changeTimes":[0,0,0,0,0,0,0,1,2,3,3,3,3,3,3,3,3,3,3,4,5,5,5,6,7,7,7,7,8,9],"appearTimes":[0,0,0,0,0,0,0,8,15,23,32,39,49,58,66,75,86,94,99,104,117,124,132,138,144,151,159,165,169,176],"label":"8187981677","categoryRecord":[{},{},{},{},{},{},{},{"latina":6,"asian":2},{"latina":3,"asian":4},{"latina":5,"asian":3},{"latina":6,"asian":3},{"latina":3,"asian":4},{"latina":10},{"latina":7,"asian":2},{"latina":1,"asian":7},{"latina":3,"asian":6},{"latina":4,"asian":7},{"latina":1,"asian":7},{"latina":2,"asian":3},{"latina":2,"asian":3},{"latina":4,"rican":3,"asian":6},{"latina":3,"asian":4},{"latina":5,"asian":3},{"latina":2,"asian":4},{"latina":2,"asian":4},{"latina":3,"asian":4},{"latina":5,"asian":3},{"latina":3,"asian":3},{"asian":4},{"asian":7}]},{"id":39,"category":"asian","appear":[-1,-1,-1,-1,-1,-1,-1,55,55,55,55,55,55,55,55,55,55,55,55,66,66,66,66,66,55,55,55,55,11,11],"color":0,"changeTimes":[0,0,0,0,0,0,0,1,1,1,1,1,1,1,1,1,1,1,1,2,2,2,2,2,3,3,3,3,4,4],"appearTimes":[0,0,0,0,0,0,0,1,1,1,1,1,1,1,1,2,4,4,4,5,5,5,5,5,10,10,10,10,11,11],"label":"+1-2027589856","categoryRecord":[{},{},{},{},{},{},{},{"asian":1},{},{},{},{},{},{},{},{"asian":1},{"asian":2},{},{},{"french":1},{},{},{},{},{"asian":5},{},{},{},{"asian":1},{}]},{"id":40,"category":"asian","appear":[-1,-1,-1,-1,-1,-1,-1,57,60,30,60,60,60,60,60,58,60,60,57,60,60,35,60,57,30,57,86,60,64,30],"color":0,"changeTimes":[0,0,0,0,0,0,0,1,2,3,4,4,4,4,4,5,6,6,7,8,8,9,10,11,12,13,14,15,16,17],"appearTimes":[0,0,0,0,0,0,0,1,9,14,20,29,38,43,50,59,66,74,84,94,99,106,117,118,128,138,149,154,162,169],"label":"9298883955","categoryRecord":[{},{},{},{},{},{},{},{"asian":1},{"asian":8},{"asian":5},{"asian":6},{"asian":9},{"asian":9},{"asian":5},{"asian":7},{"asian":9},{"asian":7},{"asian":8},{"asian":10},{"asian":10},{"asian":5},{"asian":7},{"asian":11},{"asian":1},{"asian":10},{"asian":10},{"asian":11},{"asian":5},{"asian":8},{"asian":7}]},{"id":41,"category":"asian","appear":[-1,-1,-1,-1,-1,-1,-1,58,58,58,58,58,58,58,58,58,58,58,58,58,58,58,58,58,58,58,58,58,58,58],"color":0,"changeTimes":[0,0,0,0,0,0,0,1,1,1,1,1,1,1,1,1,1,1,1,1,1,1,1,1,1,1,1,1,1,1],"appearTimes":[0,0,0,0,0,0,0,3,10,17,25,32,40,44,49,55,63,69,76,81,87,91,99,103,111,116,123,129,134,140],"label":"7187147288","categoryRecord":[{},{},{},{},{},{},{},{"asian":3},{"asian":7},{"asian":7},{"asian":8},{"asian":7},{"asian":8},{"asian":4},{"asian":5},{"asian":6},{"asian":8},{"asian":6},{"asian":7},{"asian":5},{"asian":6},{"asian":4},{"asian":8},{"asian":4},{"asian":8},{"asian":5},{"asian":7},{"asian":6},{"asian":5},{"asian":6}]},{"id":42,"category":"asian","appear":[-1,-1,-1,-1,-1,-1,-1,29,29,29,29,29,29,29,29,29,29,29,29,29,29,29,29,29,29,29,29,29,29,29],"color":0,"changeTimes":[0,0,0,0,0,0,0,1,1,1,1,1,1,1,1,1,1,1,1,1,1,1,1,1,1,1,1,1,1,1],"appearTimes":[0,0,0,0,0,0,0,2,3,5,5,5,5,5,5,6,6,10,14,16,20,22,25,28,31,35,39,42,44,47],"label":"7146409616","categoryRecord":[{},{},{},{},{},{},{},{"asian":2},{"asian":1},{"asian":2},{},{},{},{},{},{"asian":1},{},{"asian":4},{"asian":4},{"asian":2},{"asian":4},{"asian":2},{"asian":3},{"asian":3},{"asian":3},{"asian":4},{"asian":4},{"asian":3},{"asian":2},{"asian":3}]},{"id":43,"category":"latina","appear":[-1,-1,-1,-1,-1,-1,-1,29,29,29,29,29,29,29,29,29,29,29,29,29,29,29,29,29,29,29,29,29,29,29],"color":3,"changeTimes":[0,0,0,0,0,0,0,1,1,1,1,1,1,1,1,1,1,1,1,1,1,1,1,1,1,1,1,1,1,1],"appearTimes":[0,0,0,0,0,0,0,3,15,24,35,40,45,48,49,50,55,61,65,70,76,81,87,89,93,100,107,113,119,125],"label":"7148829122","categoryRecord":[{},{},{},{},{},{},{},{"asian":3},{"latina":3,"asian":9},{"latina":3,"asian":6},{"latina":4,"asian":7},{"latina":3,"asian":2},{"latina":4,"asian":1},{"latina":2,"asian":1},{"latina":1},{"asian":1},{"latina":2,"asian":3},{"latina":5,"asian":1},{"latina":4},{"latina":2,"asian":3},{"latina":3,"asian":3},{"latina":4,"asian":1},{"latina":4,"asian":2},{"latina":1,"asian":1},{"latina":3,"asian":1},{"latina":4,"asian":3},{"latina":6,"asian":1},{"latina":5,"asian":1},{"latina":3,"asian":3},{"latina":3,"asian":3}]},{"id":44,"category":"latina","appear":[-1,-1,-1,-1,-1,-1,-1,29,29,29,29,29,29,29,29,29,29,29,29,29,29,29,29,29,29,29,29,29,29,29],"color":3,"changeTimes":[0,0,0,0,0,0,0,1,1,1,1,1,1,1,1,1,1,1,1,1,1,1,1,1,1,1,1,1,1,1],"appearTimes":[0,0,0,0,0,0,0,4,12,21,29,36,44,51,58,64,72,79,88,94,100,109,117,122,131,139,147,155,162,170],"label":"7144873454","categoryRecord":[{},{},{},{},{},{},{},{"latina":1,"asian":3},{"latina":3,"asian":5},{"latina":4,"asian":5},{"latina":4,"asian":4},{"latina":4,"asian":3},{"latina":3,"asian":5},{"latina":3,"asian":4},{"latina":1,"asian":6},{"latina":2,"white":2,"asian":2},{"latina":6,"asian":2},{"latina":1,"asian":6},{"latina":3,"asian":6},{"latina":3,"asian":3},{"latina":5,"asian":1},{"latina":2,"asian":7},{"latina":3,"asian":5},{"latina":1,"asian":4},{"latina":4,"asian":5},{"latina":5,"asian":3},{"latina":5,"asian":3},{"latina":5,"asian":3},{"latina":5,"asian":2},{"latina":3,"asian":5}]},{"id":45,"category":"thai","appear":[-1,-1,-1,-1,-1,-1,-1,29,29,29,29,29,29,29,29,29,29,29,29,29,29,29,29,29,29,29,29,29,29,29],"color":12,"changeTimes":[0,0,0,0,0,0,0,1,1,1,1,1,1,1,1,1,1,1,1,1,1,1,1,1,1,1,1,1,1,1],"appearTimes":[0,0,0,0,0,0,0,2,4,5,8,9,10,11,11,13,15,17,22,25,29,34,39,41,46,52,57,64,69,72],"label":"2526531061","categoryRecord":[{},{},{},{},{},{},{},{"thai":2},{"thai":2},{"thai":1},{"thai":3},{"thai":1},{"thai":1},{"thai":1},{},{"thai":2},{"thai":2},{"thai":2},{"thai":5},{"thai":3},{"thai":4},{"thai":5},{"thai":5},{"thai":2},{"thai":5},{"thai":6},{"thai":5},{"thai":7},{"thai":5},{"thai":3}]},{"id":46,"category":"thai","appear":[-1,-1,-1,-1,-1,-1,-1,29,29,29,29,29,29,29,29,29,29,29,29,29,29,29,29,29,29,29,29,29,29,29],"color":12,"changeTimes":[0,0,0,0,0,0,0,1,1,1,1,1,1,1,1,1,1,1,1,1,1,1,1,1,1,1,1,1,1,1],"appearTimes":[0,0,0,0,0,0,0,1,3,6,11,17,20,25,32,40,44,59,71,76,80,89,96,98,100,106,110,111,117,122],"label":"7149800067","categoryRecord":[{},{},{},{},{},{},{},{"thai":1},{"thai":2},{"thai":3},{"thai":5},{"thai":6},{"thai":3},{"thai":5},{"latina":1,"thai":6},{"latina":2,"thai":6},{"thai":4},{"thai":13,"asian":2},{"thai":10,"asian":2},{"thai":5},{"thai":3,"asian":1},{"latina":3,"thai":6},{"latina":2,"thai":4,"asian":1},{"asian":2},{"thai":1,"asian":1},{"thai":4,"asian":2},{"thai":4},{"thai":1},{"latina":1,"thai":5},{"latina":2,"thai":3}]},{"id":47,"category":"asian","appear":[-1,-1,-1,-1,-1,-1,-1,-1,62,62,62,62,62,62,62,62,62,62,62,62,62,62,62,62,62,62,62,62,11,11],"color":0,"changeTimes":[0,0,0,0,0,0,0,0,1,1,1,1,1,1,1,1,1,1,1,1,1,1,1,1,1,1,1,1,2,2],"appearTimes":[0,0,0,0,0,0,0,0,5,11,15,20,24,24,30,34,38,41,46,50,55,59,62,63,67,71,71,71,73,80],"label":"2027589856","categoryRecord":[{},{},{},{},{},{},{},{},{"asian":5},{"asian":6},{"asian":4},{"asian":5},{"asian":4},{},{"asian":6},{"asian":4},{"asian":4},{"asian":3},{"asian":5},{"asian":4},{"asian":5},{"asian":4},{"asian":3},{"asian":1},{"asian":4},{"asian":4},{},{},{"asian":2},{"asian":7}]},{"id":48,"category":"asian","appear":[-1,-1,-1,-1,-1,-1,-1,-1,2,2,2,2,2,2,2,2,2,2,2,2,2,2,2,2,2,2,2,2,2,2],"color":0,"changeTimes":[0,0,0,0,0,0,0,0,1,1,1,1,1,1,1,1,1,1,1,1,1,1,1,1,1,1,1,1,1,1],"appearTimes":[0,0,0,0,0,0,0,0,1,1,2,3,3,4,5,5,6,6,6,6,7,8,9,10,10,10,10,10,10,11],"label":"2536541081","categoryRecord":[{},{},{},{},{},{},{},{},{"asian":1},{},{"asian":1},{"asian":1},{},{"asian":1},{"asian":1},{},{"asian":1},{},{},{},{"asian":1},{"asian":1},{"asian":1},{"asian":1},{},{},{},{},{},{"asian":1}]},{"id":49,"category":"asian","appear":[-1,-1,-1,-1,-1,-1,-1,-1,57,57,9,57,57,57,58,57,71,60,57,57,57,57,57,57,58,60,57,58,57,57],"color":0,"changeTimes":[0,0,0,0,0,0,0,0,1,1,2,3,3,3,4,5,6,7,8,8,8,8,8,8,9,10,11,12,13,13],"appearTimes":[0,0,0,0,0,0,0,0,11,23,28,43,50,62,71,75,83,95,102,107,113,129,139,140,151,165,182,187,199,206],"label":"9174554016","categoryRecord":[{},{},{},{},{},{},{},{},{"asian":11},{"asian":12},{"asian":5},{"asian":15},{"asian":7},{"asian":12},{"asian":9},{"asian":4},{"asian":8},{"asian":12},{"asian":7},{"asian":5},{"asian":6},{"asian":16},{"asian":10},{"asian":1},{"asian":11},{"asian":14},{"asian":17},{"asian":5},{"asian":12},{"asian":7}]},{"id":50,"category":"asian","appear":[-1,-1,-1,-1,-1,-1,-1,-1,-1,-1,-1,-1,-1,29,29,29,29,29,29,29,29,29,29,29,29,29,29,29,29,29],"color":0,"changeTimes":[0,0,0,0,0,0,0,0,0,0,0,0,0,1,1,1,1,1,1,1,1,1,1,1,1,1,1,1,1,1],"appearTimes":[0,0,0,0,0,0,0,0,0,0,0,0,0,7,9,17,23,23,32,37,40,47,50,57,66,69,78,86,91,100],"label":"+1-7148829122","categoryRecord":[{},{},{},{},{},{},{},{},{},{},{},{},{},{"thai":1,"asian":6},{"latina":1,"asian":1},{"latina":2,"thai":2,"asian":4},{"latina":3,"thai":1,"asian":2},{},{"latina":4,"thai":1,"asian":4},{"thai":3,"asian":2},{"thai":2,"asian":1},{"latina":2,"thai":4,"asian":1},{"latina":2,"asian":1},{"latina":2,"thai":3,"asian":2},{"latina":2,"thai":2,"asian":5},{"latina":1,"thai":1,"asian":1},{"latina":5,"thai":2,"asian":2},{"latina":4,"thai":4},{"latina":2,"asian":3},{"latina":5,"thai":4}]},{"id":51,"category":"asian","appear":[-1,-1,-1,-1,-1,-1,-1,-1,-1,-1,-1,-1,-1,9,79,79,79,79,79,9,9,9,35,57,9,35,35,64,64,35],"color":0,"changeTimes":[0,0,0,0,0,0,0,0,0,0,0,0,0,1,2,2,2,2,2,3,3,3,4,5,6,7,7,8,8,9],"appearTimes":[0,0,0,0,0,0,0,0,0,0,0,0,0,6,7,13,23,26,26,32,39,50,56,60,65,67,67,68,68,71],"label":"+1-6468756117","categoryRecord":[{},{},{},{},{},{},{},{},{},{},{},{},{},{"asian":6},{"asian":1},{"asian":6},{"asian":10},{"asian":3},{},{"asian":6},{"asian":7},{"asian":11},{"asian":6},{"asian":4},{"asian":5},{"asian":2},{},{"asian":1},{},{"asian":3}]},{"id":52,"category":"ebony","appear":[-1,-1,-1,-1,-1,-1,-1,-1,-1,-1,-1,-1,-1,76,76,76,76,76,92,95,95,95,102,102,102,102,102,119,119,119],"color":4,"changeTimes":[0,0,0,0,0,0,0,0,0,0,0,0,0,1,1,1,1,1,2,3,3,3,4,4,4,4,4,5,5,5],"appearTimes":[0,0,0,0,0,0,0,0,0,0,0,0,0,2,5,6,7,7,10,12,13,16,18,20,22,23,25,27,27,29],"label":"+1-7024185244","categoryRecord":[{},{},{},{},{},{},{},{},{},{},{},{},{},{"ebony":2},{"ebony":3},{"latin":1},{"ebony":1},{},{"ebony":3},{"ebony":2},{"ebony":1},{"latin":1,"ebony":2},{"ebony":2},{"ebony":2},{"ebony":2},{"ebony":1},{"ebony":2},{"ebony":2},{},{"latin":1,"ebony":1}]},{"id":53,"category":"rican","appear":[-1,-1,-1,-1,-1,-1,-1,-1,-1,-1,-1,-1,-1,66,66,63,66,66,66,9,9,98,98,98,98,98,118,118,118,118],"color":1,"changeTimes":[0,0,0,0,0,0,0,0,0,0,0,0,0,1,1,2,3,3,3,4,4,5,5,5,5,5,6,6,6,6],"appearTimes":[0,0,0,0,0,0,0,0,0,0,0,0,0,1,2,4,5,5,5,6,7,8,8,8,8,8,9,9,9,9],"label":"+1-3477714882","categoryRecord":[{},{},{},{},{},{},{},{},{},{},{},{},{},{"rican":1},{"rican":1},{"rican":2},{"rican":1},{},{},{"rican":1},{"rican":1},{"rican":1},{},{},{},{},{"rican":1},{},{},{}]},{"id":54,"category":"asian","appear":[-1,-1,-1,-1,-1,-1,-1,-1,-1,-1,-1,-1,-1,79,79,9,9,9,9,57,9,9,64,79,35,79,79,64,79,79],"color":0,"changeTimes":[0,0,0,0,0,0,0,0,0,0,0,0,0,1,1,2,2,2,2,3,4,4,5,6,7,8,8,9,10,10],"appearTimes":[0,0,0,0,0,0,0,0,0,0,0,0,0,6,9,16,22,22,22,32,37,41,46,52,65,68,68,70,74,74],"label":"+1-7365517024","categoryRecord":[{},{},{},{},{},{},{},{},{},{},{},{},{},{"asian":6},{"asian":3},{"asian":7},{"asian":6},{},{},{"asian":10},{"asian":5},{"asian":4},{"asian":5},{"asian":6},{"asian":13},{"asian":3},{},{"asian":2},{"asian":4},{}]},{"id":55,"category":"latina","appear":[-1,-1,-1,-1,-1,-1,-1,-1,-1,-1,-1,-1,-1,37,37,37,37,37,37,37,37,37,56,106,113,113,113,113,113,74],"color":3,"changeTimes":[0,0,0,0,0,0,0,0,0,0,0,0,0,1,1,1,1,1,1,1,1,1,2,3,4,4,4,4,4,5],"appearTimes":[0,0,0,0,0,0,0,0,0,0,0,0,0,1,1,3,7,7,7,7,7,7,8,11,12,12,12,12,12,13],"label":"+1-7026290230","categoryRecord":[{},{},{},{},{},{},{},{},{},{},{},{},{},{"latina":1},{},{"latina":2},{"latina":4},{},{},{},{},{},{"latina":1},{"latina":3},{"latina":1},{},{},{},{},{"latina":1}]},{"id":56,"category":"asian","appear":[-1,-1,-1,-1,-1,-1,-1,-1,-1,-1,-1,-1,-1,34,34,34,34,34,34,34,34,34,34,34,34,34,34,34,34,34],"color":0,"changeTimes":[0,0,0,0,0,0,0,0,0,0,0,0,0,1,1,1,1,1,1,1,1,1,1,1,1,1,1,1,1,1],"appearTimes":[0,0,0,0,0,0,0,0,0,0,0,0,0,2,3,3,5,6,7,9,9,9,12,13,13,14,15,15,16,17],"label":"+1-9724972145","categoryRecord":[{},{},{},{},{},{},{},{},{},{},{},{},{},{"asian":2},{"asian":1},{},{"asian":2},{"asian":1},{"asian":1},{"asian":2},{},{},{"asian":3},{"asian":1},{},{"asian":1},{"asian":1},{},{"asian":1},{"asian":1}]},{"id":57,"category":"asian","appear":[-1,-1,-1,-1,-1,-1,-1,-1,-1,-1,-1,-1,-1,4,4,4,4,4,4,4,4,4,4,4,4,4,4,4,4,4],"color":0,"changeTimes":[0,0,0,0,0,0,0,0,0,0,0,0,0,1,1,1,1,1,1,1,1,1,1,1,1,1,1,1,1,1],"appearTimes":[0,0,0,0,0,0,0,0,0,0,0,0,0,1,1,2,2,2,2,3,3,4,4,5,6,6,8,9,10,11],"label":"+1-4157382314","categoryRecord":[{},{},{},{},{},{},{},{},{},{},{},{},{},{"asian":1},{},{"asian":1},{},{},{},{"asian":1},{},{"asian":1},{},{"asian":1},{"asian":1},{},{"asian":2},{"asian":1},{"asian":1},{"asian":1}]},{"id":58,"category":"asian","appear":[-1,-1,-1,-1,-1,-1,-1,-1,-1,-1,-1,-1,-1,2,2,2,2,2,2,2,2,2,2,2,2,2,2,2,2,2],"color":0,"changeTimes":[0,0,0,0,0,0,0,0,0,0,0,0,0,1,1,1,1,1,1,1,1,1,1,1,1,1,1,1,1,1],"appearTimes":[0,0,0,0,0,0,0,0,0,0,0,0,0,2,5,6,6,6,7,8,9,10,12,14,17,17,21,23,25,27],"label":"+1-4084163877","categoryRecord":[{},{},{},{},{},{},{},{},{},{},{},{},{},{"asian":2},{"asian":3},{"asian":1},{},{},{"asian":1},{"asian":1},{"asian":1},{"asian":1},{"asian":2},{"asian":2},{"asian":3},{},{"asian":4},{"asian":2},{"asian":2},{"asian":2}]},{"id":59,"category":"asian","appear":[-1,-1,-1,-1,-1,-1,-1,-1,-1,-1,-1,-1,-1,3,3,3,3,3,3,3,3,3,3,3,3,3,3,3,3,3],"color":0,"changeTimes":[0,0,0,0,0,0,0,0,0,0,0,0,0,1,1,1,1,1,1,1,1,1,1,1,1,1,1,1,1,1],"appearTimes":[0,0,0,0,0,0,0,0,0,0,0,0,0,1,3,3,5,6,6,8,8,9,10,11,11,11,11,14,15,15],"label":"+1-2067740892","categoryRecord":[{},{},{},{},{},{},{},{},{},{},{},{},{},{"asian":1},{"asian":2},{},{"asian":2},{"asian":1},{},{"asian":2},{},{"asian":1},{"asian":1},{"asian":1},{},{},{},{"asian":3},{"asian":1},{}]},{"id":60,"category":"white","appear":[-1,-1,-1,-1,-1,-1,-1,-1,-1,-1,-1,-1,-1,26,35,9,9,9,9,35,18,18,18,18,18,18,18,18,18,18],"color":2,"changeTimes":[0,0,0,0,0,0,0,0,0,0,0,0,0,1,2,3,3,3,3,4,5,5,5,5,5,5,5,5,5,5],"appearTimes":[0,0,0,0,0,0,0,0,0,0,0,0,0,1,3,8,13,13,13,17,19,22,22,22,22,22,22,22,22,22],"label":"+1-9173877848","categoryRecord":[{},{},{},{},{},{},{},{},{},{},{},{},{},{"white":1},{"white":1,"rican":1},{"rican":5},{"white":5},{},{},{"white":2,"rican":2},{"white":2},{"white":3},{},{},{},{},{},{},{},{}]},{"id":61,"category":"asian","appear":[-1,-1,-1,-1,-1,-1,-1,-1,-1,-1,-1,-1,-1,29,29,29,29,29,29,29,29,29,29,29,29,29,29,29,29,29],"color":0,"changeTimes":[0,0,0,0,0,0,0,0,0,0,0,0,0,1,1,1,1,1,1,1,1,1,1,1,1,1,1,1,1,1],"appearTimes":[0,0,0,0,0,0,0,0,0,0,0,0,0,1,3,6,10,10,17,22,25,32,37,46,53,56,65,71,77,83],"label":"+1-7146409616","categoryRecord":[{},{},{},{},{},{},{},{},{},{},{},{},{},{"asian":1},{"asian":2},{"latina":1,"asian":2},{"asian":4},{},{"latina":2,"thai":2,"asian":3},{"latina":1,"thai":2,"asian":2},{"latina":1,"asian":2},{"latina":2,"thai":2,"asian":3},{"latina":3,"thai":1,"asian":1},{"latina":3,"thai":3,"asian":3},{"latina":2,"thai":1,"asian":4},{"thai":1,"asian":2},{"latina":1,"thai":3,"asian":5},{"latina":2,"thai":1,"asian":3},{"latina":2,"thai":2,"asian":2},{"latina":1,"thai":1,"asian":4}]},{"id":62,"category":"white","appear":[-1,-1,-1,-1,-1,-1,-1,-1,-1,-1,-1,-1,-1,42,82,42,11,22,22,21,21,21,21,21,21,21,22,42,42,42],"color":2,"changeTimes":[0,0,0,0,0,0,0,0,0,0,0,0,0,1,2,3,4,5,5,6,6,6,6,6,6,6,7,8,8,8],"appearTimes":[0,0,0,0,0,0,0,0,0,0,0,0,0,6,11,14,15,17,18,24,24,24,24,24,24,24,27,31,31,31],"label":"+1-7577856264","categoryRecord":[{},{},{},{},{},{},{},{},{},{},{},{},{},{"white":6},{"white":5},{"white":3},{"white":1},{"white":2},{"white":1},{"white":6},{},{},{},{},{},{},{"white":3},{"white":4},{},{}]},{"id":63,"category":"asian","appear":[-1,-1,-1,-1,-1,-1,-1,-1,-1,-1,-1,-1,-1,4,4,4,4,4,4,4,4,4,4,4,4,4,4,4,4,4],"color":0,"changeTimes":[0,0,0,0,0,0,0,0,0,0,0,0,0,1,1,1,1,1,1,1,1,1,1,1,1,1,1,1,1,1],"appearTimes":[0,0,0,0,0,0,0,0,0,0,0,0,0,2,3,5,8,8,8,10,10,11,16,16,19,19,21,24,28,28],"label":"+1-4156833245","categoryRecord":[{},{},{},{},{},{},{},{},{},{},{},{},{},{"asian":2},{"asian":1},{"asian":2},{"asian":3},{},{},{"asian":2},{},{"asian":1},{"asian":5},{},{"asian":3},{},{"asian":2},{"asian":3},{"asian":4},{}]},{"id":64,"category":"asian","appear":[-1,-1,-1,-1,-1,-1,-1,-1,-1,-1,-1,-1,-1,4,4,4,4,4,4,4,4,4,4,4,4,4,4,4,4,4],"color":0,"changeTimes":[0,0,0,0,0,0,0,0,0,0,0,0,0,1,1,1,1,1,1,1,1,1,1,1,1,1,1,1,1,1],"appearTimes":[0,0,0,0,0,0,0,0,0,0,0,0,0,2,2,2,6,6,6,7,8,8,10,12,13,13,17,18,19,21],"label":"+1-4157382275","categoryRecord":[{},{},{},{},{},{},{},{},{},{},{},{},{},{"asian":2},{},{},{"asian":4},{},{},{"asian":1},{"asian":1},{},{"asian":2},{"asian":2},{"asian":1},{},{"asian":4},{"asian":1},{"asian":1},{"asian":2}]},{"id":65,"category":"ebony","appear":[-1,-1,-1,-1,-1,-1,-1,-1,-1,-1,-1,-1,-1,66,66,55,55,55,55,55,55,55,55,55,55,55,55,55,55,55],"color":4,"changeTimes":[0,0,0,0,0,0,0,0,0,0,0,0,0,1,1,2,2,2,2,2,2,2,2,2,2,2,2,2,2,2],"appearTimes":[0,0,0,0,0,0,0,0,0,0,0,0,0,1,3,4,10,10,18,21,23,23,23,23,23,23,23,23,23,23],"label":"+1-9784944706","categoryRecord":[{},{},{},{},{},{},{},{},{},{},{},{},{},{"ebony":1},{"ebony":2},{"ebony":1},{"ebony":6},{},{"ebony":8},{"ebony":3},{"ebony":2},{},{},{},{},{},{},{},{},{}]},{"id":66,"category":"asian","appear":[-1,-1,-1,-1,-1,-1,-1,-1,-1,-1,-1,-1,-1,3,0,0,3,0,0,0,3,3,3,3,3,3,3,3,3,3],"color":0,"changeTimes":[0,0,0,0,0,0,0,0,0,0,0,0,0,1,2,2,3,4,4,4,5,5,5,5,5,5,5,5,5,5],"appearTimes":[0,0,0,0,0,0,0,0,0,0,0,0,0,2,3,3,6,7,7,9,10,12,14,14,16,16,16,18,19,19],"label":"+1-2067740601","categoryRecord":[{},{},{},{},{},{},{},{},{},{},{},{},{},{"asian":2},{"asian":1},{},{"asian":3},{"asian":1},{},{"asian":2},{"asian":1},{"asian":2},{"asian":2},{},{"asian":2},{},{},{"asian":2},{"asian":1},{}]},{"id":67,"category":"asian","appear":[-1,-1,-1,-1,-1,-1,-1,-1,-1,-1,-1,-1,-1,4,4,4,4,4,4,4,4,4,4,4,4,4,4,4,4,4],"color":0,"changeTimes":[0,0,0,0,0,0,0,0,0,0,0,0,0,1,1,1,1,1,1,1,1,1,1,1,1,1,1,1,1,1],"appearTimes":[0,0,0,0,0,0,0,0,0,0,0,0,0,1,2,4,4,4,5,5,5,6,6,7,8,8,9,12,12,13],"label":"+1-1415738227","categoryRecord":[{},{},{},{},{},{},{},{},{},{},{},{},{},{"asian":1},{"asian":1},{"asian":2},{},{},{"asian":1},{},{},{"asian":1},{},{"asian":1},{"asian":1},{},{"asian":1},{"asian":3},{},{"asian":1}]},{"id":68,"category":"asian","appear":[-1,-1,-1,-1,-1,-1,-1,-1,-1,-1,-1,-1,-1,4,85,85,4,85,85,4,85,85,4,85,4,4,85,4,4,85],"color":0,"changeTimes":[0,0,0,0,0,0,0,0,0,0,0,0,0,1,2,2,3,4,4,5,6,6,7,8,9,9,10,11,11,12],"appearTimes":[0,0,0,0,0,0,0,0,0,0,0,0,0,2,4,5,6,7,7,9,11,12,16,18,19,19,20,22,25,26],"label":"+1-4157382305","categoryRecord":[{},{},{},{},{},{},{},{},{},{},{},{},{},{"asian":2},{"asian":2},{"asian":1},{"asian":1},{"asian":1},{},{"asian":2},{"asian":2},{"asian":1},{"asian":4},{"asian":2},{"asian":1},{},{"asian":1},{"asian":2},{"asian":3},{"asian":1}]},{"id":69,"category":"latina","appear":[-1,-1,-1,-1,-1,-1,-1,-1,-1,-1,-1,-1,-1,38,29,38,29,38,38,38,38,29,29,29,29,29,29,38,38,38],"color":3,"changeTimes":[0,0,0,0,0,0,0,0,0,0,0,0,0,1,2,3,4,5,5,5,5,6,6,6,6,6,6,7,7,7],"appearTimes":[0,0,0,0,0,0,0,0,0,0,0,0,0,3,5,6,11,12,12,14,14,17,18,26,26,28,28,29,29,31],"label":"+1-5623880466","categoryRecord":[{},{},{},{},{},{},{},{},{},{},{},{},{},{"latina":3},{"latina":2},{"latina":1},{"latina":5},{"latina":1},{},{"latina":2},{},{"latina":3},{"latina":1},{"latina":8},{},{"latina":2},{},{"latina":1},{},{"latina":2}]},{"id":70,"category":"asian","appear":[-1,-1,-1,-1,-1,-1,-1,-1,-1,-1,-1,-1,-1,1,1,1,1,1,1,1,1,1,1,1,1,1,1,1,1,1],"color":0,"changeTimes":[0,0,0,0,0,0,0,0,0,0,0,0,0,1,1,1,1,1,1,1,1,1,1,1,1,1,1,1,1,1],"appearTimes":[0,0,0,0,0,0,0,0,0,0,0,0,0,1,1,1,2,2,2,3,3,3,4,4,4,4,5,5,7,7],"label":"+1-1408907012","categoryRecord":[{},{},{},{},{},{},{},{},{},{},{},{},{},{"asian":1},{},{},{"asian":1},{},{},{"asian":1},{},{},{"asian":1},{},{},{},{"asian":1},{},{"asian":2},{}]},{"id":71,"category":"asian","appear":[-1,-1,-1,-1,-1,-1,-1,-1,-1,-1,-1,-1,-1,4,4,4,4,4,4,4,4,4,4,4,4,4,4,4,4,4],"color":0,"changeTimes":[0,0,0,0,0,0,0,0,0,0,0,0,0,1,1,1,1,1,1,1,1,1,1,1,1,1,1,1,1,1],"appearTimes":[0,0,0,0,0,0,0,0,0,0,0,0,0,2,3,3,4,4,4,5,6,6,9,9,10,10,10,11,11,12],"label":"+1-1415738231","categoryRecord":[{},{},{},{},{},{},{},{},{},{},{},{},{},{"asian":2},{"asian":1},{},{"asian":1},{},{},{"asian":1},{"asian":1},{},{"asian":3},{},{"asian":1},{},{},{"asian":1},{},{"asian":1}]},{"id":72,"category":"asian","appear":[-1,-1,-1,-1,-1,-1,-1,-1,-1,-1,-1,-1,-1,3,0,0,3,0,0,0,0,0,0,0,0,0,0,0,0,3],"color":0,"changeTimes":[0,0,0,0,0,0,0,0,0,0,0,0,0,1,2,2,3,4,4,4,4,4,4,4,4,4,4,4,4,5],"appearTimes":[0,0,0,0,0,0,0,0,0,0,0,0,0,2,3,3,4,5,5,7,7,7,9,9,9,9,9,9,9,10],"label":"+1-2067740664","categoryRecord":[{},{},{},{},{},{},{},{},{},{},{},{},{},{"asian":2},{"asian":1},{},{"asian":1},{"asian":1},{},{"asian":2},{},{},{"asian":2},{},{},{},{},{},{},{"asian":1}]},{"id":73,"category":"asian","appear":[-1,-1,-1,-1,-1,-1,-1,-1,-1,-1,-1,-1,-1,2,2,2,1,1,1,1,1,1,2,2,1,1,2,1,2,2],"color":0,"changeTimes":[0,0,0,0,0,0,0,0,0,0,0,0,0,1,1,1,2,2,2,2,2,2,3,3,4,4,5,6,7,7],"appearTimes":[0,0,0,0,0,0,0,0,0,0,0,0,0,1,3,3,4,4,4,4,5,5,7,9,10,10,12,14,15,15],"label":"+1-1408907767","categoryRecord":[{},{},{},{},{},{},{},{},{},{},{},{},{},{"asian":1},{"asian":2},{},{"asian":1},{},{},{},{"asian":1},{},{"asian":2},{"asian":2},{"asian":1},{},{"asian":2},{"asian":2},{"asian":1},{}]},{"id":74,"category":"ebony","appear":[-1,-1,-1,-1,-1,-1,-1,-1,-1,-1,-1,-1,-1,-1,83,83,83,83,83,83,96,96,96,96,112,112,112,112,120,120],"color":4,"changeTimes":[0,0,0,0,0,0,0,0,0,0,0,0,0,0,1,1,1,1,1,1,2,2,2,2,3,3,3,3,4,4],"appearTimes":[0,0,0,0,0,0,0,0,0,0,0,0,0,0,1,2,2,2,2,2,3,3,4,4,5,6,6,6,7,8],"label":"+1-6824333297","categoryRecord":[{},{},{},{},{},{},{},{},{},{},{},{},{},{},{"ebony":1},{"ebony":1},{},{},{},{},{"ebony":1},{},{"ebony":1},{},{"ebony":1},{"ebony":1},{},{},{"ebony":1},{"ebony":1}]},{"id":75,"category":"thai","appear":[-1,-1,-1,-1,-1,-1,-1,-1,-1,-1,-1,-1,-1,-1,29,29,29,29,29,29,29,29,29,29,29,29,29,29,29,29],"color":12,"changeTimes":[0,0,0,0,0,0,0,0,0,0,0,0,0,0,1,1,1,1,1,1,1,1,1,1,1,1,1,1,1,1],"appearTimes":[0,0,0,0,0,0,0,0,0,0,0,0,0,0,2,2,4,4,8,9,9,15,15,17,23,25,29,33,37,44],"label":"+1-7149800067","categoryRecord":[{},{},{},{},{},{},{},{},{},{},{},{},{},{},{"latina":1,"asian":1},{},{"thai":2},{},{"thai":4},{"thai":1},{},{"latina":3,"thai":1,"asian":2},{},{"thai":2},{"thai":6},{"thai":2},{"thai":4},{"thai":4},{"thai":3,"asian":1},{"latina":2,"thai":3,"asian":2}]},{"id":76,"category":"asian","appear":[-1,-1,-1,-1,-1,-1,-1,-1,-1,-1,-1,-1,-1,-1,1,1,1,1,1,1,1,1,1,2,1,1,1,2,2,1],"color":0,"changeTimes":[0,0,0,0,0,0,0,0,0,0,0,0,0,0,1,1,1,1,1,1,1,1,1,2,3,3,3,4,4,5],"appearTimes":[0,0,0,0,0,0,0,0,0,0,0,0,0,0,2,3,3,3,5,5,6,7,7,9,10,10,11,13,13,15],"label":"+1-1408907568","categoryRecord":[{},{},{},{},{},{},{},{},{},{},{},{},{},{},{"asian":2},{"asian":1},{},{},{"asian":2},{},{"asian":1},{"asian":1},{},{"asian":2},{"asian":1},{},{"asian":1},{"asian":2},{},{"asian":2}]},{"id":77,"category":"asian","appear":[-1,-1,-1,-1,-1,-1,-1,-1,-1,-1,-1,-1,-1,-1,2,2,2,2,2,2,2,2,2,2,2,2,2,2,2,2],"color":0,"changeTimes":[0,0,0,0,0,0,0,0,0,0,0,0,0,0,1,1,1,1,1,1,1,1,1,1,1,1,1,1,1,1],"appearTimes":[0,0,0,0,0,0,0,0,0,0,0,0,0,0,1,1,1,1,1,1,1,1,1,2,2,2,2,3,3,3],"label":"+1-4089070127","categoryRecord":[{},{},{},{},{},{},{},{},{},{},{},{},{},{},{"asian":1},{},{},{},{},{},{},{},{},{"asian":1},{},{},{},{"asian":1},{},{}]},{"id":78,"category":"asian","appear":[-1,-1,-1,-1,-1,-1,-1,-1,-1,-1,-1,-1,-1,-1,85,85,85,85,85,85,85,85,85,85,85,85,85,85,85,85],"color":0,"changeTimes":[0,0,0,0,0,0,0,0,0,0,0,0,0,0,1,1,1,1,1,1,1,1,1,1,1,1,1,1,1,1],"appearTimes":[0,0,0,0,0,0,0,0,0,0,0,0,0,0,1,1,2,2,2,2,3,3,4,5,6,6,6,8,8,8],"label":"+1-1415683324","categoryRecord":[{},{},{},{},{},{},{},{},{},{},{},{},{},{},{"asian":1},{},{"asian":1},{},{},{},{"asian":1},{},{"asian":1},{"asian":1},{"asian":1},{},{},{"asian":2},{},{}]},{"id":79,"category":"asian","appear":[-1,-1,-1,-1,-1,-1,-1,-1,-1,-1,-1,-1,-1,-1,-1,88,88,93,88,88,88,88,88,107,107,107,110,110,110,110],"color":0,"changeTimes":[0,0,0,0,0,0,0,0,0,0,0,0,0,0,0,1,1,2,3,3,3,3,3,4,4,4,5,5,5,5],"appearTimes":[0,0,0,0,0,0,0,0,0,0,0,0,0,0,0,4,20,58,123,123,123,123,123,126,140,140,156,156,156,156],"label":"3002060030","categoryRecord":[{},{},{},{},{},{},{},{},{},{},{},{},{},{},{},{"asian":4},{"asian":16},{"asian":38},{"asian":65},{},{},{},{},{"asian":3},{"asian":14},{},{"asian":16},{},{},{}]},{"id":80,"category":"french","appear":[-1,-1,-1,-1,-1,-1,-1,-1,-1,-1,-1,-1,-1,-1,-1,7,7,7,7,7,7,7,7,103,103,103,103,103,103,103],"color":5,"changeTimes":[0,0,0,0,0,0,0,0,0,0,0,0,0,0,0,1,1,1,1,1,1,1,1,2,2,2,2,2,2,2],"appearTimes":[0,0,0,0,0,0,0,0,0,0,0,0,0,0,0,2,7,23,38,46,52,60,64,71,79,89,91,92,93,93],"label":"4389312714","categoryRecord":[{},{},{},{},{},{},{},{},{},{},{},{},{},{},{},{"french":2},{"french":5},{"french":16},{"french":15},{"french":8},{"french":6},{"french":8},{"french":4},{"french":7},{"french":8},{"french":10},{"french":2},{"french":1},{"french":1},{}]},{"id":81,"category":"asian","appear":[-1,-1,-1,-1,-1,-1,-1,-1,-1,-1,-1,-1,-1,-1,-1,87,40,40,40,40,40,33,33,33,33,94,94,94,94,94],"color":0,"changeTimes":[0,0,0,0,0,0,0,0,0,0,0,0,0,0,0,1,2,2,2,2,2,3,3,3,3,4,4,4,4,4],"appearTimes":[0,0,0,0,0,0,0,0,0,0,0,0,0,0,0,2,3,3,3,3,3,4,4,4,4,5,5,7,7,7],"label":"+1-7029173787","categoryRecord":[{},{},{},{},{},{},{},{},{},{},{},{},{},{},{},{"asian":2},{"asian":1},{},{},{},{},{"asian":1},{},{},{},{"asian":1},{},{"asian":2},{},{}]},{"id":82,"category":"dominican","appear":[-1,-1,-1,-1,-1,-1,-1,-1,-1,-1,-1,-1,-1,-1,-1,79,79,79,79,79,79,79,55,55,55,55,55,55,55,55],"color":9,"changeTimes":[0,0,0,0,0,0,0,0,0,0,0,0,0,0,0,1,1,1,1,1,1,1,2,2,2,2,2,2,2,2],"appearTimes":[0,0,0,0,0,0,0,0,0,0,0,0,0,0,0,1,4,5,5,5,5,5,7,8,8,8,8,8,8,8],"label":"+1-9785639065","categoryRecord":[{},{},{},{},{},{},{},{},{},{},{},{},{},{},{},{"dominican":1},{"dominican":3},{"dominican":1},{},{},{},{},{"dominican":2},{"dominican":1},{},{},{},{},{},{}]},{"id":83,"category":"spanish","appear":[-1,-1,-1,-1,-1,-1,-1,-1,-1,-1,-1,-1,-1,-1,-1,89,2,2,2,85,85,85,85,4,4,4,4,4,4,4],"color":8,"changeTimes":[0,0,0,0,0,0,0,0,0,0,0,0,0,0,0,1,2,2,2,3,3,3,3,4,4,4,4,4,4,4],"appearTimes":[0,0,0,0,0,0,0,0,0,0,0,0,0,0,0,1,2,2,2,3,3,3,3,5,6,6,6,6,6,6],"label":"+1-9162675765","categoryRecord":[{},{},{},{},{},{},{},{},{},{},{},{},{},{},{},{"spanish":1},{"spanish":1},{},{},{"spanish":1},{},{},{},{"spanish":2},{"spanish":1},{},{},{},{},{}]},{"id":84,"category":"french","appear":[-1,-1,-1,-1,-1,-1,-1,-1,-1,-1,-1,-1,-1,-1,-1,7,7,7,7,7,7,7,103,103,103,103,103,103,103,103],"color":5,"changeTimes":[0,0,0,0,0,0,0,0,0,0,0,0,0,0,0,1,1,1,1,1,1,1,2,2,2,2,2,2,2,2],"appearTimes":[0,0,0,0,0,0,0,0,0,0,0,0,0,0,0,1,4,6,6,8,9,11,12,15,17,17,17,17,17,17],"label":"+1-4389312714","categoryRecord":[{},{},{},{},{},{},{},{},{},{},{},{},{},{},{},{"french":1},{"french":3},{"french":2},{},{"french":2},{"french":1},{"french":2},{"french":1},{"french":3},{"french":2},{},{},{},{},{}]},{"id":85,"category":"latina","appear":[-1,-1,-1,-1,-1,-1,-1,-1,-1,-1,-1,-1,-1,-1,-1,61,2,2,2,2,2,50,50,50,104,16,97,97,38,97],"color":3,"changeTimes":[0,0,0,0,0,0,0,0,0,0,0,0,0,0,0,1,2,2,2,2,2,3,3,3,4,5,6,6,7,8],"appearTimes":[0,0,0,0,0,0,0,0,0,0,0,0,0,0,0,1,6,23,25,25,25,27,27,37,53,82,103,126,140,163],"label":"7077527666","categoryRecord":[{},{},{},{},{},{},{},{},{},{},{},{},{},{},{},{"latina":1},{"latina":5},{"latina":17},{"latina":2},{},{},{"latina":2},{},{"latina":10},{"latina":16},{"latina":29},{"latina":21},{"latina":23},{"latina":14},{"latina":23}]},{"id":86,"category":"asian","appear":[-1,-1,-1,-1,-1,-1,-1,-1,-1,-1,-1,-1,-1,-1,-1,4,4,4,4,4,4,4,4,4,4,4,4,4,4,4],"color":0,"changeTimes":[0,0,0,0,0,0,0,0,0,0,0,0,0,0,0,1,1,1,1,1,1,1,1,1,1,1,1,1,1,1],"appearTimes":[0,0,0,0,0,0,0,0,0,0,0,0,0,0,0,2,2,2,2,2,2,4,4,4,5,5,6,7,7,7],"label":"+1-1415738230","categoryRecord":[{},{},{},{},{},{},{},{},{},{},{},{},{},{},{},{"asian":2},{},{},{},{},{},{"asian":2},{},{},{"asian":1},{},{"asian":1},{"asian":1},{},{}]},{"id":87,"category":"asian","appear":[-1,-1,-1,-1,-1,-1,-1,-1,-1,-1,-1,-1,-1,-1,-1,-1,88,93,93,88,88,88,88,110,110,110,110,110,110,110],"color":0,"changeTimes":[0,0,0,0,0,0,0,0,0,0,0,0,0,0,0,0,1,2,2,3,3,3,3,4,4,4,4,4,4,4],"appearTimes":[0,0,0,0,0,0,0,0,0,0,0,0,0,0,0,0,3,6,6,9,9,11,12,15,15,15,15,15,15,15],"label":"+1-6464169269","categoryRecord":[{},{},{},{},{},{},{},{},{},{},{},{},{},{},{},{},{"asian":3},{"asian":3},{},{"asian":3},{},{"asian":2},{"asian":1},{"asian":3},{},{},{},{},{},{}]},{"id":88,"category":"latin","appear":[-1,-1,-1,-1,-1,-1,-1,-1,-1,-1,-1,-1,-1,-1,-1,-1,91,91,91,91,91,91,91,109,109,109,109,109,109,109],"color":7,"changeTimes":[0,0,0,0,0,0,0,0,0,0,0,0,0,0,0,0,1,1,1,1,1,1,1,2,2,2,2,2,2,2],"appearTimes":[0,0,0,0,0,0,0,0,0,0,0,0,0,0,0,0,63,63,63,63,63,63,63,128,128,128,128,128,128,128],"label":"3479914713","categoryRecord":[{},{},{},{},{},{},{},{},{},{},{},{},{},{},{},{},{"latin":63},{},{},{},{},{},{},{"latina":65},{},{},{},{},{},{}]},{"id":89,"category":"asian","appear":[-1,-1,-1,-1,-1,-1,-1,-1,-1,-1,-1,-1,-1,-1,-1,-1,53,53,53,53,53,53,53,53,53,53,53,53,53,53],"color":0,"changeTimes":[0,0,0,0,0,0,0,0,0,0,0,0,0,0,0,0,1,1,1,1,1,1,1,1,1,1,1,1,1,1],"appearTimes":[0,0,0,0,0,0,0,0,0,0,0,0,0,0,0,0,2,2,2,3,3,3,4,4,5,5,5,6,6,6],"label":"+1-1972497214","categoryRecord":[{},{},{},{},{},{},{},{},{},{},{},{},{},{},{},{},{"asian":2},{},{},{"asian":1},{},{},{"asian":1},{},{"asian":1},{},{},{"asian":1},{},{}]},{"id":90,"category":"cuban","appear":[-1,-1,-1,-1,-1,-1,-1,-1,-1,-1,-1,-1,-1,-1,-1,-1,33,33,33,33,33,33,33,33,14,14,33,33,33,111],"color":10,"changeTimes":[0,0,0,0,0,0,0,0,0,0,0,0,0,0,0,0,1,1,1,1,1,1,1,1,2,2,3,3,3,4],"appearTimes":[0,0,0,0,0,0,0,0,0,0,0,0,0,0,0,0,1,2,2,2,3,4,4,4,5,5,6,8,8,9],"label":"+1-4046233100","categoryRecord":[{},{},{},{},{},{},{},{},{},{},{},{},{},{},{},{},{"cuban":1},{"cuban":1},{},{},{"ebony":1},{"cuban":1},{},{},{"cuban":1},{},{"cuban":1},{"cuban":2},{},{"cuban":1}]},{"id":91,"category":"latin","appear":[-1,-1,-1,-1,-1,-1,-1,-1,-1,-1,-1,-1,-1,-1,-1,-1,91,91,91,91,91,91,91,91,91,91,91,91,91,91],"color":7,"changeTimes":[0,0,0,0,0,0,0,0,0,0,0,0,0,0,0,0,1,1,1,1,1,1,1,1,1,1,1,1,1,1],"appearTimes":[0,0,0,0,0,0,0,0,0,0,0,0,0,0,0,0,1,1,1,1,1,1,1,1,1,1,1,1,1,1],"label":"+1-3479914713","categoryRecord":[{},{},{},{},{},{},{},{},{},{},{},{},{},{},{},{},{"latin":1},{},{},{},{},{},{},{},{},{},{},{},{},{}]},{"id":92,"category":"rican","appear":[-1,-1,-1,-1,-1,-1,-1,-1,-1,-1,-1,-1,-1,-1,-1,-1,5,5,5,5,5,5,5,5,5,5,5,5,5,5],"color":1,"changeTimes":[0,0,0,0,0,0,0,0,0,0,0,0,0,0,0,0,1,1,1,1,1,1,1,1,1,1,1,1,1,1],"appearTimes":[0,0,0,0,0,0,0,0,0,0,0,0,0,0,0,0,1,3,4,4,5,7,7,9,11,12,16,19,21,21],"label":"+1-2168041719","categoryRecord":[{},{},{},{},{},{},{},{},{},{},{},{},{},{},{},{},{"rican":1},{"rican":2},{"rican":1},{},{"rican":1},{"rican":2},{},{"rican":2},{"rican":2},{"rican":1},{"rican":4},{"rican":3},{"rican":2},{}]},{"id":93,"category":"latina","appear":[-1,-1,-1,-1,-1,-1,-1,-1,-1,-1,-1,-1,-1,-1,-1,-1,2,2,2,2,2,2,104,104,104,104,104,104,104,104],"color":3,"changeTimes":[0,0,0,0,0,0,0,0,0,0,0,0,0,0,0,0,1,1,1,1,1,1,2,2,2,2,2,2,2,2],"appearTimes":[0,0,0,0,0,0,0,0,0,0,0,0,0,0,0,0,2,2,2,2,2,2,3,5,9,10,12,16,19,22],"label":"+1-7077527666","categoryRecord":[{},{},{},{},{},{},{},{},{},{},{},{},{},{},{},{},{"latina":2},{},{},{},{},{},{"latina":1},{"latina":2},{"latina":4},{"latina":1},{"latina":2},{"latina":4},{"latina":3},{"latina":3}]},{"id":94,"category":"asian","appear":[-1,-1,-1,-1,-1,-1,-1,-1,-1,-1,-1,-1,-1,-1,-1,-1,-1,57,57,57,57,57,57,57,57,57,57,57,57,57],"color":0,"changeTimes":[0,0,0,0,0,0,0,0,0,0,0,0,0,0,0,0,0,1,1,1,1,1,1,1,1,1,1,1,1,1],"appearTimes":[0,0,0,0,0,0,0,0,0,0,0,0,0,0,0,0,0,1,1,1,1,1,1,1,1,1,1,1,1,1],"label":"+1-9298883955","categoryRecord":[{},{},{},{},{},{},{},{},{},{},{},{},{},{},{},{},{},{"asian":1},{},{},{},{},{},{},{},{},{},{},{},{}]},{"id":95,"category":"asian","appear":[-1,-1,-1,-1,-1,-1,-1,-1,-1,-1,-1,-1,-1,-1,-1,-1,-1,-1,68,68,68,68,68,68,68,68,68,68,68,68],"color":0,"changeTimes":[0,0,0,0,0,0,0,0,0,0,0,0,0,0,0,0,0,0,1,1,1,1,1,1,1,1,1,1,1,1],"appearTimes":[0,0,0,0,0,0,0,0,0,0,0,0,0,0,0,0,0,0,1,1,1,1,1,1,1,1,1,1,1,1],"label":"7148932131","categoryRecord":[{},{},{},{},{},{},{},{},{},{},{},{},{},{},{},{},{},{},{"asian":1},{},{},{},{},{},{},{},{},{},{},{}]},{"id":96,"category":"ebony","appear":[-1,-1,-1,-1,-1,-1,-1,-1,-1,-1,-1,-1,-1,-1,-1,-1,-1,-1,14,14,14,14,14,14,14,14,14,14,14,14],"color":4,"changeTimes":[0,0,0,0,0,0,0,0,0,0,0,0,0,0,0,0,0,0,1,1,1,1,1,1,1,1,1,1,1,1],"appearTimes":[0,0,0,0,0,0,0,0,0,0,0,0,0,0,0,0,0,0,4,55,101,101,101,101,101,101,101,101,101,101],"label":"4042469672","categoryRecord":[{},{},{},{},{},{},{},{},{},{},{},{},{},{},{},{},{},{},{"ebony":4},{"ebony":51},{"ebony":46},{},{},{},{},{},{},{},{},{}]},{"id":97,"category":"ebony","appear":[-1,-1,-1,-1,-1,-1,-1,-1,-1,-1,-1,-1,-1,-1,-1,-1,-1,-1,14,14,14,14,14,14,14,42,42,42,22,22],"color":4,"changeTimes":[0,0,0,0,0,0,0,0,0,0,0,0,0,0,0,0,0,0,1,1,1,1,1,1,1,2,2,2,3,3],"appearTimes":[0,0,0,0,0,0,0,0,0,0,0,0,0,0,0,0,0,0,1,2,2,2,2,2,2,3,3,3,4,4],"label":"+1-6015100301","categoryRecord":[{},{},{},{},{},{},{},{},{},{},{},{},{},{},{},{},{},{},{"ebony":1},{"ebony":1},{},{},{},{},{},{"white":1},{},{},{"white":1},{}]},{"id":98,"category":"rican","appear":[-1,-1,-1,-1,-1,-1,-1,-1,-1,-1,-1,-1,-1,-1,-1,-1,-1,-1,-1,32,32,32,32,32,32,32,32,32,32,32],"color":1,"changeTimes":[0,0,0,0,0,0,0,0,0,0,0,0,0,0,0,0,0,0,0,1,1,1,1,1,1,1,1,1,1,1],"appearTimes":[0,0,0,0,0,0,0,0,0,0,0,0,0,0,0,0,0,0,0,1,1,1,1,1,1,1,1,1,1,1],"label":"+1-7024901269","categoryRecord":[{},{},{},{},{},{},{},{},{},{},{},{},{},{},{},{},{},{},{},{"rican":1},{},{},{},{},{},{},{},{},{},{}]},{"id":99,"category":"asian","appear":[-1,-1,-1,-1,-1,-1,-1,-1,-1,-1,-1,-1,-1,-1,-1,-1,-1,-1,-1,9,9,9,64,64,64,64,9,64,64,64],"color":0,"changeTimes":[0,0,0,0,0,0,0,0,0,0,0,0,0,0,0,0,0,0,0,1,1,1,2,2,2,2,3,4,4,4],"appearTimes":[0,0,0,0,0,0,0,0,0,0,0,0,0,0,0,0,0,0,0,3,4,4,5,5,5,5,6,7,7,7],"label":"+1-7187048986","categoryRecord":[{},{},{},{},{},{},{},{},{},{},{},{},{},{},{},{},{},{},{},{"asian":3},{"asian":1},{},{"asian":1},{},{},{},{"asian":1},{"asian":1},{},{}]},{"id":100,"category":"white","appear":[-1,-1,-1,-1,-1,-1,-1,-1,-1,-1,-1,-1,-1,-1,-1,-1,-1,-1,-1,-1,16,16,16,16,16,42,42,42,22,22],"color":2,"changeTimes":[0,0,0,0,0,0,0,0,0,0,0,0,0,0,0,0,0,0,0,0,1,1,1,1,1,2,2,2,3,3],"appearTimes":[0,0,0,0,0,0,0,0,0,0,0,0,0,0,0,0,0,0,0,0,3,3,3,3,3,52,52,52,56,104],"label":"6015100301","categoryRecord":[{},{},{},{},{},{},{},{},{},{},{},{},{},{},{},{},{},{},{},{},{"latina":3},{},{},{},{},{"white":49},{},{},{"white":4},{"white":48}]},{"id":101,"category":"asian","appear":[-1,-1,-1,-1,-1,-1,-1,-1,-1,-1,-1,-1,-1,-1,-1,-1,-1,-1,-1,-1,-1,59,38,38,38,38,38,38,38,38],"color":0,"changeTimes":[0,0,0,0,0,0,0,0,0,0,0,0,0,0,0,0,0,0,0,0,0,1,2,2,2,2,2,2,2,2],"appearTimes":[0,0,0,0,0,0,0,0,0,0,0,0,0,0,0,0,0,0,0,0,0,1,2,2,2,2,2,3,3,4],"label":"+1-8187981677","categoryRecord":[{},{},{},{},{},{},{},{},{},{},{},{},{},{},{},{},{},{},{},{},{},{"asian":1},{"latina":1},{},{},{},{},{"asian":1},{},{"latina":1}]},{"id":102,"category":"latina","appear":[-1,-1,-1,-1,-1,-1,-1,-1,-1,-1,-1,-1,-1,-1,-1,-1,-1,-1,-1,-1,-1,-1,28,29,29,28,28,28,28,28],"color":3,"changeTimes":[0,0,0,0,0,0,0,0,0,0,0,0,0,0,0,0,0,0,0,0,0,0,1,2,2,3,3,3,3,3],"appearTimes":[0,0,0,0,0,0,0,0,0,0,0,0,0,0,0,0,0,0,0,0,0,0,1,2,2,3,3,3,3,3],"label":"+1-2472136400","categoryRecord":[{},{},{},{},{},{},{},{},{},{},{},{},{},{},{},{},{},{},{},{},{},{},{"latina":1},{"latina":1},{},{"latina":1},{},{},{},{}]},{"id":103,"category":"thai","appear":[-1,-1,-1,-1,-1,-1,-1,-1,-1,-1,-1,-1,-1,-1,-1,-1,-1,-1,-1,-1,-1,-1,-1,108,108,108,108,108,108,108],"color":12,"changeTimes":[0,0,0,0,0,0,0,0,0,0,0,0,0,0,0,0,0,0,0,0,0,0,0,1,1,1,1,1,1,1],"appearTimes":[0,0,0,0,0,0,0,0,0,0,0,0,0,0,0,0,0,0,0,0,0,0,0,1,1,1,1,1,1,1],"label":"+1-6464195615","categoryRecord":[{},{},{},{},{},{},{},{},{},{},{},{},{},{},{},{},{},{},{},{},{},{},{},{"thai":1},{},{},{},{},{},{}]},{"id":104,"category":"white","appear":[-1,-1,-1,-1,-1,-1,-1,-1,-1,-1,-1,-1,-1,-1,-1,-1,-1,-1,-1,-1,-1,-1,-1,-1,111,111,111,111,111,111],"color":2,"changeTimes":[0,0,0,0,0,0,0,0,0,0,0,0,0,0,0,0,0,0,0,0,0,0,0,0,1,1,1,1,1,1],"appearTimes":[0,0,0,0,0,0,0,0,0,0,0,0,0,0,0,0,0,0,0,0,0,0,0,0,1,1,1,1,1,1],"label":"+1-1000000000","categoryRecord":[{},{},{},{},{},{},{},{},{},{},{},{},{},{},{},{},{},{},{},{},{},{},{},{},{"white":1},{},{},{},{},{}]},{"id":105,"category":"spanish","appear":[-1,-1,-1,-1,-1,-1,-1,-1,-1,-1,-1,-1,-1,-1,-1,-1,-1,-1,-1,-1,-1,-1,-1,-1,-1,2,2,2,121,121],"color":8,"changeTimes":[0,0,0,0,0,0,0,0,0,0,0,0,0,0,0,0,0,0,0,0,0,0,0,0,0,1,1,1,2,2],"appearTimes":[0,0,0,0,0,0,0,0,0,0,0,0,0,0,0,0,0,0,0,0,0,0,0,0,0,1,1,1,2,2],"label":"+1-3012060220","categoryRecord":[{},{},{},{},{},{},{},{},{},{},{},{},{},{},{},{},{},{},{},{},{},{},{},{},{},{"spanish":1},{},{},{"spanish":1},{}]},{"id":106,"category":"indian","appear":[-1,-1,-1,-1,-1,-1,-1,-1,-1,-1,-1,-1,-1,-1,-1,-1,-1,-1,-1,-1,-1,-1,-1,-1,-1,-1,112,112,112,112],"color":13,"changeTimes":[0,0,0,0,0,0,0,0,0,0,0,0,0,0,0,0,0,0,0,0,0,0,0,0,0,0,1,1,1,1],"appearTimes":[0,0,0,0,0,0,0,0,0,0,0,0,0,0,0,0,0,0,0,0,0,0,0,0,0,0,2,2,2,2],"label":"4006824333","categoryRecord":[{},{},{},{},{},{},{},{},{},{},{},{},{},{},{},{},{},{},{},{},{},{},{},{},{},{},{"indian":2},{},{},{}]},{"id":107,"category":"asian","appear":[-1,-1,-1,-1,-1,-1,-1,-1,-1,-1,-1,-1,-1,-1,-1,-1,-1,-1,-1,-1,-1,-1,-1,-1,-1,-1,2,2,2,2],"color":0,"changeTimes":[0,0,0,0,0,0,0,0,0,0,0,0,0,0,0,0,0,0,0,0,0,0,0,0,0,0,1,1,1,1],"appearTimes":[0,0,0,0,0,0,0,0,0,0,0,0,0,0,0,0,0,0,0,0,0,0,0,0,0,0,1,1,1,2],"label":"+1-4089077677","categoryRecord":[{},{},{},{},{},{},{},{},{},{},{},{},{},{},{},{},{},{},{},{},{},{},{},{},{},{},{"asian":1},{},{},{"asian":1}]},{"id":108,"category":"latina","appear":[-1,-1,-1,-1,-1,-1,-1,-1,-1,-1,-1,-1,-1,-1,-1,-1,-1,-1,-1,-1,-1,-1,-1,-1,-1,-1,-1,29,29,29],"color":3,"changeTimes":[0,0,0,0,0,0,0,0,0,0,0,0,0,0,0,0,0,0,0,0,0,0,0,0,0,0,0,1,1,1],"appearTimes":[0,0,0,0,0,0,0,0,0,0,0,0,0,0,0,0,0,0,0,0,0,0,0,0,0,0,0,1,1,1],"label":"+1-5624851114","categoryRecord":[{},{},{},{},{},{},{},{},{},{},{},{},{},{},{},{},{},{},{},{},{},{},{},{},{},{},{},{"latina":1},{},{}]},{"id":109,"category":"latina","appear":[-1,-1,-1,-1,-1,-1,-1,-1,-1,-1,-1,-1,-1,-1,-1,-1,-1,-1,-1,-1,-1,-1,-1,-1,-1,-1,-1,29,29,29],"color":3,"changeTimes":[0,0,0,0,0,0,0,0,0,0,0,0,0,0,0,0,0,0,0,0,0,0,0,0,0,0,0,1,1,1],"appearTimes":[0,0,0,0,0,0,0,0,0,0,0,0,0,0,0,0,0,0,0,0,0,0,0,0,0,0,0,1,1,1],"label":"5624851114","categoryRecord":[{},{},{},{},{},{},{},{},{},{},{},{},{},{},{},{},{},{},{},{},{},{},{},{},{},{},{},{"latina":1},{},{}]},{"id":110,"category":"spanish","appear":[-1,-1,-1,-1,-1,-1,-1,-1,-1,-1,-1,-1,-1,-1,-1,-1,-1,-1,-1,-1,-1,-1,-1,-1,-1,-1,-1,-1,121,121],"color":8,"changeTimes":[0,0,0,0,0,0,0,0,0,0,0,0,0,0,0,0,0,0,0,0,0,0,0,0,0,0,0,0,1,1],"appearTimes":[0,0,0,0,0,0,0,0,0,0,0,0,0,0,0,0,0,0,0,0,0,0,0,0,0,0,0,0,1,2],"label":"3012060220","categoryRecord":[{},{},{},{},{},{},{},{},{},{},{},{},{},{},{},{},{},{},{},{},{},{},{},{},{},{},{},{},{"spanish":1},{"spanish":1}]},{"id":111,"category":"latina","appear":[-1,-1,-1,-1,-1,-1,-1,-1,-1,-1,-1,-1,-1,-1,-1,-1,-1,-1,-1,-1,-1,-1,-1,-1,-1,-1,-1,-1,-1,74],"color":3,"changeTimes":[0,0,0,0,0,0,0,0,0,0,0,0,0,0,0,0,0,0,0,0,0,0,0,0,0,0,0,0,0,1],"appearTimes":[0,0,0,0,0,0,0,0,0,0,0,0,0,0,0,0,0,0,0,0,0,0,0,0,0,0,0,0,0,1],"label":"+1-2136400765","categoryRecord":[{},{},{},{},{},{},{},{},{},{},{},{},{},{},{},{},{},{},{},{},{},{},{},{},{},{},{},{},{},{"latina":1}]}],"categoryMap":{"spanish":8,"cuban":10,"latina":3,"white":2,"indian":13,"thai":12,"dominican":9,"french":5,"filipino":6,"brazilian":11,"hispanic":14,"asian":0,"latin":7,"ebony":4,"rican":1},"maxPostTimes":499,"maxMoveTimes":24}
